{
  "dataset_id": "dvf",
  "source_file_location": "data/raw/dvf/year=2017/2017-full.csv.zip",
  "rows": 1114661,
  "columns_count": 13,
  "available_years": [
    2014,
    2015,
    2016,
    2017,
    2018,
    2019,
    2020,
    2021,
    2022,
    2023,
    2024
  ],
  "last_update": null,
  "columns": [
    {
      "key": "nature_mutation",
      "label": "nature mutation",
      "type": "text"
    },
    {
      "key": "type_local",
      "label": "type local",
      "type": "text"
    },
    {
      "key": "valeur_fonciere",
      "label": "valeur fonciere",
      "type": "number"
    },
    {
      "key": "surface_reelle_bati",
      "label": "surface reelle bati",
      "type": "number"
    },
    {
      "key": "nombre_pieces_principales",
      "label": "nombre pieces principales",
      "type": "number"
    },
    {
      "key": "surface_terrain",
      "label": "surface terrain",
      "type": "number"
    },
    {
      "key": "longitude",
      "label": "longitude",
      "type": "number"
    },
    {
      "key": "latitude",
      "label": "latitude",
      "type": "number"
    },
    {
      "key": "code_departement",
      "label": "code departement",
      "type": "text"
    },
    {
      "key": "code_commune",
      "label": "code commune",
      "type": "text"
    },
    {
      "key": "nom_commune",
      "label": "nom commune",
      "type": "text"
    },
    {
      "key": "year",
      "label": "year",
      "type": "number"
    },
    {
      "key": "price_m2",
      "label": "price m2",
      "type": "number"
    }
  ],
  "records": [
    {
      "nature_mutation": "Vente",
      "type_local": "Appartement",
      "valeur_fonciere": 27000.0,
      "surface_reelle_bati": 37.0,
      "nombre_pieces_principales": 2.0,
      "surface_terrain": null,
      "longitude": 5.23444,
      "latitude": 46.206155,
      "code_departement": "01",
      "code_commune": "01053",
      "nom_commune": "Bourg-en-Bresse",
      "year": 2017,
      "price_m2": 729.7297297297297
    },
    {
      "nature_mutation": "Vente",
      "type_local": "Appartement",
      "valeur_fonciere": 258000.0,
      "surface_reelle_bati": 22.0,
      "nombre_pieces_principales": 1.0,
      "surface_terrain": 655.0,
      "longitude": 5.205776,
      "latitude": 46.197455,
      "code_departement": "01",
      "code_commune": "01344",
      "nom_commune": "Saint-Denis-lès-Bourg",
      "year": 2017,
      "price_m2": 11727.272727272728
    },
    {
      "nature_mutation": "Vente",
      "type_local": "Appartement",
      "valeur_fonciere": 258000.0,
      "surface_reelle_bati": 22.0,
      "nombre_pieces_principales": 1.0,
      "surface_terrain": 655.0,
      "longitude": 5.205776,
      "latitude": 46.197455,
      "code_departement": "01",
      "code_commune": "01344",
      "nom_commune": "Saint-Denis-lès-Bourg",
      "year": 2017,
      "price_m2": 11727.272727272728
    },
    {
      "nature_mutation": "Vente",
      "type_local": "Appartement",
      "valeur_fonciere": 258000.0,
      "surface_reelle_bati": 120.0,
      "nombre_pieces_principales": 5.0,
      "surface_terrain": 655.0,
      "longitude": 5.205776,
      "latitude": 46.197455,
      "code_departement": "01",
      "code_commune": "01344",
      "nom_commune": "Saint-Denis-lès-Bourg",
      "year": 2017,
      "price_m2": 2150.0
    },
    {
      "nature_mutation": "Vente",
      "type_local": "Maison",
      "valeur_fonciere": 175050.0,
      "surface_reelle_bati": 99.0,
      "nombre_pieces_principales": 5.0,
      "surface_terrain": 471.0,
      "longitude": 5.361589,
      "latitude": 46.274684,
      "code_departement": "01",
      "code_commune": "01426",
      "nom_commune": "Val-Revermont",
      "year": 2017,
      "price_m2": 1768.1818181818182
    },
    {
      "nature_mutation": "Vente",
      "type_local": "Appartement",
      "valeur_fonciere": 162000.0,
      "surface_reelle_bati": 69.0,
      "nombre_pieces_principales": 3.0,
      "surface_terrain": null,
      "longitude": 5.233978,
      "latitude": 46.211926,
      "code_departement": "01",
      "code_commune": "01053",
      "nom_commune": "Bourg-en-Bresse",
      "year": 2017,
      "price_m2": 2347.8260869565215
    },
    {
      "nature_mutation": "Vente",
      "type_local": "Maison",
      "valeur_fonciere": 165900.0,
      "surface_reelle_bati": 90.0,
      "nombre_pieces_principales": 4.0,
      "surface_terrain": 296.0,
      "longitude": 5.314389,
      "latitude": 46.190425,
      "code_departement": "01",
      "code_commune": "01072",
      "nom_commune": "Ceyzériat",
      "year": 2017,
      "price_m2": 1843.3333333333333
    },
    {
      "nature_mutation": "Vente",
      "type_local": "Maison",
      "valeur_fonciere": 181800.0,
      "surface_reelle_bati": 80.0,
      "nombre_pieces_principales": 4.0,
      "surface_terrain": 1067.0,
      "longitude": 5.238507,
      "latitude": 46.183301,
      "code_departement": "01",
      "code_commune": "01053",
      "nom_commune": "Bourg-en-Bresse",
      "year": 2017,
      "price_m2": 2272.5
    },
    {
      "nature_mutation": "Vente",
      "type_local": "Appartement",
      "valeur_fonciere": 177000.0,
      "surface_reelle_bati": 38.0,
      "nombre_pieces_principales": 1.0,
      "surface_terrain": 70.0,
      "longitude": 5.228088,
      "latitude": 46.205262,
      "code_departement": "01",
      "code_commune": "01053",
      "nom_commune": "Bourg-en-Bresse",
      "year": 2017,
      "price_m2": 4657.894736842105
    },
    {
      "nature_mutation": "Vente",
      "type_local": "Appartement",
      "valeur_fonciere": 177000.0,
      "surface_reelle_bati": 38.0,
      "nombre_pieces_principales": 1.0,
      "surface_terrain": 70.0,
      "longitude": 5.228088,
      "latitude": 46.205262,
      "code_departement": "01",
      "code_commune": "01053",
      "nom_commune": "Bourg-en-Bresse",
      "year": 2017,
      "price_m2": 4657.894736842105
    },
    {
      "nature_mutation": "Vente",
      "type_local": "Maison",
      "valeur_fonciere": 174500.0,
      "surface_reelle_bati": 80.0,
      "nombre_pieces_principales": 4.0,
      "surface_terrain": 1173.0,
      "longitude": 5.062224,
      "latitude": 46.257696,
      "code_departement": "01",
      "code_commune": "01115",
      "nom_commune": "Confrançon",
      "year": 2017,
      "price_m2": 2181.25
    },
    {
      "nature_mutation": "Vente",
      "type_local": "Maison",
      "valeur_fonciere": 205788.75,
      "surface_reelle_bati": 101.0,
      "nombre_pieces_principales": 5.0,
      "surface_terrain": 809.0,
      "longitude": 5.26727,
      "latitude": 46.128057,
      "code_departement": "01",
      "code_commune": "01069",
      "nom_commune": "Certines",
      "year": 2017,
      "price_m2": 2037.5123762376238
    },
    {
      "nature_mutation": "Vente",
      "type_local": "Maison",
      "valeur_fonciere": 179000.0,
      "surface_reelle_bati": 80.0,
      "nombre_pieces_principales": 3.0,
      "surface_terrain": 1283.0,
      "longitude": 5.312798,
      "latitude": 46.143308,
      "code_departement": "01",
      "code_commune": "01422",
      "nom_commune": "Tossiat",
      "year": 2017,
      "price_m2": 2237.5
    },
    {
      "nature_mutation": "Vente",
      "type_local": "Maison",
      "valeur_fonciere": 47000.0,
      "surface_reelle_bati": 84.0,
      "nombre_pieces_principales": 3.0,
      "surface_terrain": 1340.0,
      "longitude": 5.257059,
      "latitude": 46.408592,
      "code_departement": "01",
      "code_commune": "01029",
      "nom_commune": "Beaupont",
      "year": 2017,
      "price_m2": 559.5238095238095
    },
    {
      "nature_mutation": "Vente",
      "type_local": "Maison",
      "valeur_fonciere": 138000.0,
      "surface_reelle_bati": 101.0,
      "nombre_pieces_principales": 5.0,
      "surface_terrain": 419.0,
      "longitude": 5.300164,
      "latitude": 46.293192,
      "code_departement": "01",
      "code_commune": "01350",
      "nom_commune": "Saint-Étienne-du-Bois",
      "year": 2017,
      "price_m2": 1366.3366336633662
    },
    {
      "nature_mutation": "Vente",
      "type_local": "Maison",
      "valeur_fonciere": 161340.0,
      "surface_reelle_bati": 85.0,
      "nombre_pieces_principales": 5.0,
      "surface_terrain": 972.0,
      "longitude": 5.345598,
      "latitude": 46.044725,
      "code_departement": "01",
      "code_commune": "01304",
      "nom_commune": "Pont-d'Ain",
      "year": 2017,
      "price_m2": 1898.1176470588234
    },
    {
      "nature_mutation": "Vente",
      "type_local": "Maison",
      "valeur_fonciere": 186000.0,
      "surface_reelle_bati": 160.0,
      "nombre_pieces_principales": 6.0,
      "surface_terrain": 716.0,
      "longitude": 4.903528,
      "latitude": 46.263772,
      "code_departement": "01",
      "code_commune": "01365",
      "nom_commune": "Saint-Jean-sur-Veyle",
      "year": 2017,
      "price_m2": 1162.5
    },
    {
      "nature_mutation": "Vente",
      "type_local": "Maison",
      "valeur_fonciere": 84000.0,
      "surface_reelle_bati": 154.0,
      "nombre_pieces_principales": 5.0,
      "surface_terrain": 630.0,
      "longitude": 5.166231,
      "latitude": 46.308467,
      "code_departement": "01",
      "code_commune": "01130",
      "nom_commune": "Bresse Vallons",
      "year": 2017,
      "price_m2": 545.4545454545455
    },
    {
      "nature_mutation": "Vente",
      "type_local": "Maison",
      "valeur_fonciere": 137000.0,
      "surface_reelle_bati": 87.0,
      "nombre_pieces_principales": 4.0,
      "surface_terrain": 868.0,
      "longitude": 4.914912,
      "latitude": 46.392793,
      "code_departement": "01",
      "code_commune": "01284",
      "nom_commune": "Ozan",
      "year": 2017,
      "price_m2": 1574.712643678161
    },
    {
      "nature_mutation": "Vente",
      "type_local": "Maison",
      "valeur_fonciere": 166900.0,
      "surface_reelle_bati": 92.0,
      "nombre_pieces_principales": 4.0,
      "surface_terrain": 2137.0,
      "longitude": 5.002731,
      "latitude": 46.409726,
      "code_departement": "01",
      "code_commune": "01352",
      "nom_commune": "Saint-Étienne-sur-Reyssouze",
      "year": 2017,
      "price_m2": 1814.1304347826087
    },
    {
      "nature_mutation": "Vente",
      "type_local": "Maison",
      "valeur_fonciere": 166900.0,
      "surface_reelle_bati": 92.0,
      "nombre_pieces_principales": 4.0,
      "surface_terrain": 937.0,
      "longitude": 5.002731,
      "latitude": 46.409726,
      "code_departement": "01",
      "code_commune": "01352",
      "nom_commune": "Saint-Étienne-sur-Reyssouze",
      "year": 2017,
      "price_m2": 1814.1304347826087
    },
    {
      "nature_mutation": "Vente",
      "type_local": "Maison",
      "valeur_fonciere": 30000.0,
      "surface_reelle_bati": 80.0,
      "nombre_pieces_principales": 5.0,
      "surface_terrain": 192.0,
      "longitude": 5.345104,
      "latitude": 46.383177,
      "code_departement": "01",
      "code_commune": "01108",
      "nom_commune": "Coligny",
      "year": 2017,
      "price_m2": 375.0
    },
    {
      "nature_mutation": "Vente",
      "type_local": "Maison",
      "valeur_fonciere": 137000.0,
      "surface_reelle_bati": 37.0,
      "nombre_pieces_principales": 1.0,
      "surface_terrain": 640.0,
      "longitude": 5.386399,
      "latitude": 46.297052,
      "code_departement": "01",
      "code_commune": "01426",
      "nom_commune": "Val-Revermont",
      "year": 2017,
      "price_m2": 3702.7027027027025
    },
    {
      "nature_mutation": "Vente",
      "type_local": "Maison",
      "valeur_fonciere": 137000.0,
      "surface_reelle_bati": 130.0,
      "nombre_pieces_principales": 5.0,
      "surface_terrain": 640.0,
      "longitude": 5.386399,
      "latitude": 46.297052,
      "code_departement": "01",
      "code_commune": "01426",
      "nom_commune": "Val-Revermont",
      "year": 2017,
      "price_m2": 1053.8461538461538
    },
    {
      "nature_mutation": "Vente",
      "type_local": "Maison",
      "valeur_fonciere": 165000.0,
      "surface_reelle_bati": 121.0,
      "nombre_pieces_principales": 4.0,
      "surface_terrain": 1041.0,
      "longitude": 4.986871,
      "latitude": 46.430707,
      "code_departement": "01",
      "code_commune": "01094",
      "nom_commune": "Chavannes-sur-Reyssouze",
      "year": 2017,
      "price_m2": 1363.6363636363637
    },
    {
      "nature_mutation": "Vente",
      "type_local": "Appartement",
      "valeur_fonciere": 380000.0,
      "surface_reelle_bati": 88.0,
      "nombre_pieces_principales": 3.0,
      "surface_terrain": 150.0,
      "longitude": 5.218748,
      "latitude": 46.210508,
      "code_departement": "01",
      "code_commune": "01053",
      "nom_commune": "Bourg-en-Bresse",
      "year": 2017,
      "price_m2": 4318.181818181818
    },
    {
      "nature_mutation": "Vente",
      "type_local": "Appartement",
      "valeur_fonciere": 380000.0,
      "surface_reelle_bati": 51.0,
      "nombre_pieces_principales": 2.0,
      "surface_terrain": 150.0,
      "longitude": 5.218748,
      "latitude": 46.210508,
      "code_departement": "01",
      "code_commune": "01053",
      "nom_commune": "Bourg-en-Bresse",
      "year": 2017,
      "price_m2": 7450.980392156863
    },
    {
      "nature_mutation": "Vente",
      "type_local": "Appartement",
      "valeur_fonciere": 380000.0,
      "surface_reelle_bati": 132.0,
      "nombre_pieces_principales": 4.0,
      "surface_terrain": 150.0,
      "longitude": 5.218748,
      "latitude": 46.210508,
      "code_departement": "01",
      "code_commune": "01053",
      "nom_commune": "Bourg-en-Bresse",
      "year": 2017,
      "price_m2": 2878.787878787879
    },
    {
      "nature_mutation": "Vente",
      "type_local": "Appartement",
      "valeur_fonciere": 380000.0,
      "surface_reelle_bati": 37.0,
      "nombre_pieces_principales": 2.0,
      "surface_terrain": null,
      "longitude": 5.218844,
      "latitude": 46.210472,
      "code_departement": "01",
      "code_commune": "01053",
      "nom_commune": "Bourg-en-Bresse",
      "year": 2017,
      "price_m2": 10270.27027027027
    },
    {
      "nature_mutation": "Vente",
      "type_local": "Appartement",
      "valeur_fonciere": 380000.0,
      "surface_reelle_bati": 37.0,
      "nombre_pieces_principales": 2.0,
      "surface_terrain": null,
      "longitude": 5.218844,
      "latitude": 46.210472,
      "code_departement": "01",
      "code_commune": "01053",
      "nom_commune": "Bourg-en-Bresse",
      "year": 2017,
      "price_m2": 10270.27027027027
    },
    {
      "nature_mutation": "Vente",
      "type_local": "Appartement",
      "valeur_fonciere": 380000.0,
      "surface_reelle_bati": 32.0,
      "nombre_pieces_principales": 2.0,
      "surface_terrain": null,
      "longitude": 5.218844,
      "latitude": 46.210472,
      "code_departement": "01",
      "code_commune": "01053",
      "nom_commune": "Bourg-en-Bresse",
      "year": 2017,
      "price_m2": 11875.0
    },
    {
      "nature_mutation": "Vente",
      "type_local": "Maison",
      "valeur_fonciere": 209000.0,
      "surface_reelle_bati": 84.0,
      "nombre_pieces_principales": 5.0,
      "surface_terrain": 451.0,
      "longitude": 5.242665,
      "latitude": 46.185407,
      "code_departement": "01",
      "code_commune": "01053",
      "nom_commune": "Bourg-en-Bresse",
      "year": 2017,
      "price_m2": 2488.095238095238
    },
    {
      "nature_mutation": "Vente",
      "type_local": "Maison",
      "valeur_fonciere": 134000.0,
      "surface_reelle_bati": 109.0,
      "nombre_pieces_principales": 6.0,
      "surface_terrain": 800.0,
      "longitude": 5.135803,
      "latitude": 46.211236,
      "code_departement": "01",
      "code_commune": "01065",
      "nom_commune": "Buellas",
      "year": 2017,
      "price_m2": 1229.3577981651376
    },
    {
      "nature_mutation": "Vente",
      "type_local": "Maison",
      "valeur_fonciere": 90000.0,
      "surface_reelle_bati": 104.0,
      "nombre_pieces_principales": 5.0,
      "surface_terrain": null,
      "longitude": 5.274941,
      "latitude": 46.196298,
      "code_departement": "01",
      "code_commune": "01053",
      "nom_commune": "Bourg-en-Bresse",
      "year": 2017,
      "price_m2": 865.3846153846154
    },
    {
      "nature_mutation": "Vente",
      "type_local": "Maison",
      "valeur_fonciere": 170000.0,
      "surface_reelle_bati": 96.0,
      "nombre_pieces_principales": 4.0,
      "surface_terrain": 578.0,
      "longitude": 4.930006,
      "latitude": 46.310436,
      "code_departement": "01",
      "code_commune": "01026",
      "nom_commune": "Bâgé-le-Châtel",
      "year": 2017,
      "price_m2": 1770.8333333333333
    },
    {
      "nature_mutation": "Vente",
      "type_local": "Appartement",
      "valeur_fonciere": 186300.0,
      "surface_reelle_bati": 70.0,
      "nombre_pieces_principales": 3.0,
      "surface_terrain": null,
      "longitude": 5.218379,
      "latitude": 46.206445,
      "code_departement": "01",
      "code_commune": "01053",
      "nom_commune": "Bourg-en-Bresse",
      "year": 2017,
      "price_m2": 2661.4285714285716
    },
    {
      "nature_mutation": "Vente",
      "type_local": "Appartement",
      "valeur_fonciere": 119000.0,
      "surface_reelle_bati": 72.0,
      "nombre_pieces_principales": 3.0,
      "surface_terrain": null,
      "longitude": 5.219136,
      "latitude": 46.198272,
      "code_departement": "01",
      "code_commune": "01053",
      "nom_commune": "Bourg-en-Bresse",
      "year": 2017,
      "price_m2": 1652.7777777777778
    },
    {
      "nature_mutation": "Vente",
      "type_local": "Appartement",
      "valeur_fonciere": 125081.0,
      "surface_reelle_bati": 53.0,
      "nombre_pieces_principales": 2.0,
      "surface_terrain": null,
      "longitude": 5.200117,
      "latitude": 46.210292,
      "code_departement": "01",
      "code_commune": "01344",
      "nom_commune": "Saint-Denis-lès-Bourg",
      "year": 2017,
      "price_m2": 2360.0188679245284
    },
    {
      "nature_mutation": "Vente",
      "type_local": "Maison",
      "valeur_fonciere": 128000.0,
      "surface_reelle_bati": 107.0,
      "nombre_pieces_principales": 6.0,
      "surface_terrain": 414.0,
      "longitude": 5.224692,
      "latitude": 46.211993,
      "code_departement": "01",
      "code_commune": "01053",
      "nom_commune": "Bourg-en-Bresse",
      "year": 2017,
      "price_m2": 1196.2616822429907
    },
    {
      "nature_mutation": "Vente",
      "type_local": "Maison",
      "valeur_fonciere": 153500.0,
      "surface_reelle_bati": 98.0,
      "nombre_pieces_principales": 4.0,
      "surface_terrain": 690.0,
      "longitude": 4.907986,
      "latitude": 46.363758,
      "code_departement": "01",
      "code_commune": "01231",
      "nom_commune": "Manziat",
      "year": 2017,
      "price_m2": 1566.3265306122448
    },
    {
      "nature_mutation": "Vente",
      "type_local": "Maison",
      "valeur_fonciere": 162250.0,
      "surface_reelle_bati": 86.0,
      "nombre_pieces_principales": 4.0,
      "surface_terrain": 1085.0,
      "longitude": 5.083003,
      "latitude": 46.332526,
      "code_departement": "01",
      "code_commune": "01236",
      "nom_commune": "Marsonnas",
      "year": 2017,
      "price_m2": 1886.6279069767443
    },
    {
      "nature_mutation": "Vente",
      "type_local": "Maison",
      "valeur_fonciere": 154000.0,
      "surface_reelle_bati": 106.0,
      "nombre_pieces_principales": 5.0,
      "surface_terrain": 1773.0,
      "longitude": 4.933268,
      "latitude": 46.320276,
      "code_departement": "01",
      "code_commune": "01025",
      "nom_commune": "Bâgé-Dommartin",
      "year": 2017,
      "price_m2": 1452.8301886792453
    },
    {
      "nature_mutation": "Vente",
      "type_local": "Appartement",
      "valeur_fonciere": 70000.0,
      "surface_reelle_bati": 64.0,
      "nombre_pieces_principales": 3.0,
      "surface_terrain": null,
      "longitude": 5.221165,
      "latitude": 46.208091,
      "code_departement": "01",
      "code_commune": "01053",
      "nom_commune": "Bourg-en-Bresse",
      "year": 2017,
      "price_m2": 1093.75
    },
    {
      "nature_mutation": "Vente",
      "type_local": "Maison",
      "valeur_fonciere": 156000.0,
      "surface_reelle_bati": 96.0,
      "nombre_pieces_principales": 5.0,
      "surface_terrain": 790.0,
      "longitude": null,
      "latitude": null,
      "code_departement": "01",
      "code_commune": "01320",
      "nom_commune": "Replonges",
      "year": 2017,
      "price_m2": 1625.0
    },
    {
      "nature_mutation": "Vente",
      "type_local": "Appartement",
      "valeur_fonciere": 80000.0,
      "surface_reelle_bati": 63.0,
      "nombre_pieces_principales": 3.0,
      "surface_terrain": null,
      "longitude": 5.22355,
      "latitude": 46.210532,
      "code_departement": "01",
      "code_commune": "01053",
      "nom_commune": "Bourg-en-Bresse",
      "year": 2017,
      "price_m2": 1269.8412698412699
    },
    {
      "nature_mutation": "Vente",
      "type_local": "Appartement",
      "valeur_fonciere": 175000.0,
      "surface_reelle_bati": 100.0,
      "nombre_pieces_principales": 4.0,
      "surface_terrain": 871.0,
      "longitude": 5.077637,
      "latitude": 46.459135,
      "code_departement": "01",
      "code_commune": "01388",
      "nom_commune": "Saint-Trivier-de-Courtes",
      "year": 2017,
      "price_m2": 1750.0
    },
    {
      "nature_mutation": "Vente",
      "type_local": "Appartement",
      "valeur_fonciere": 175000.0,
      "surface_reelle_bati": 101.0,
      "nombre_pieces_principales": 3.0,
      "surface_terrain": 871.0,
      "longitude": 5.077637,
      "latitude": 46.459135,
      "code_departement": "01",
      "code_commune": "01388",
      "nom_commune": "Saint-Trivier-de-Courtes",
      "year": 2017,
      "price_m2": 1732.6732673267327
    },
    {
      "nature_mutation": "Vente",
      "type_local": "Maison",
      "valeur_fonciere": 175000.0,
      "surface_reelle_bati": 130.0,
      "nombre_pieces_principales": 6.0,
      "surface_terrain": 117.0,
      "longitude": 5.077845,
      "latitude": 46.459142,
      "code_departement": "01",
      "code_commune": "01388",
      "nom_commune": "Saint-Trivier-de-Courtes",
      "year": 2017,
      "price_m2": 1346.1538461538462
    },
    {
      "nature_mutation": "Vente",
      "type_local": "Appartement",
      "valeur_fonciere": 107400.0,
      "surface_reelle_bati": 70.0,
      "nombre_pieces_principales": 3.0,
      "surface_terrain": null,
      "longitude": 5.219374,
      "latitude": 46.199796,
      "code_departement": "01",
      "code_commune": "01053",
      "nom_commune": "Bourg-en-Bresse",
      "year": 2017,
      "price_m2": 1534.2857142857142
    },
    {
      "nature_mutation": "Vente",
      "type_local": "Maison",
      "valeur_fonciere": 150000.0,
      "surface_reelle_bati": 98.0,
      "nombre_pieces_principales": 4.0,
      "surface_terrain": 726.0,
      "longitude": 5.14624,
      "latitude": 46.158171,
      "code_departement": "01",
      "code_commune": "01336",
      "nom_commune": "Saint-André-sur-Vieux-Jonc",
      "year": 2017,
      "price_m2": 1530.6122448979593
    },
    {
      "nature_mutation": "Vente",
      "type_local": "Maison",
      "valeur_fonciere": 126600.0,
      "surface_reelle_bati": 65.0,
      "nombre_pieces_principales": 3.0,
      "surface_terrain": 84.0,
      "longitude": 5.32934,
      "latitude": 46.178903,
      "code_departement": "01",
      "code_commune": "01072",
      "nom_commune": "Ceyzériat",
      "year": 2017,
      "price_m2": 1947.6923076923076
    },
    {
      "nature_mutation": "Vente",
      "type_local": "Appartement",
      "valeur_fonciere": 360000.0,
      "surface_reelle_bati": 65.0,
      "nombre_pieces_principales": 2.0,
      "surface_terrain": 1752.0,
      "longitude": 5.25593,
      "latitude": 46.339466,
      "code_departement": "01",
      "code_commune": "01232",
      "nom_commune": "Marboz",
      "year": 2017,
      "price_m2": 5538.461538461538
    },
    {
      "nature_mutation": "Vente",
      "type_local": "Appartement",
      "valeur_fonciere": 360000.0,
      "surface_reelle_bati": 91.0,
      "nombre_pieces_principales": 3.0,
      "surface_terrain": 1752.0,
      "longitude": 5.25593,
      "latitude": 46.339466,
      "code_departement": "01",
      "code_commune": "01232",
      "nom_commune": "Marboz",
      "year": 2017,
      "price_m2": 3956.043956043956
    },
    {
      "nature_mutation": "Vente",
      "type_local": "Appartement",
      "valeur_fonciere": 360000.0,
      "surface_reelle_bati": 94.0,
      "nombre_pieces_principales": 2.0,
      "surface_terrain": 1752.0,
      "longitude": 5.25593,
      "latitude": 46.339466,
      "code_departement": "01",
      "code_commune": "01232",
      "nom_commune": "Marboz",
      "year": 2017,
      "price_m2": 3829.7872340425533
    },
    {
      "nature_mutation": "Vente",
      "type_local": "Appartement",
      "valeur_fonciere": 360000.0,
      "surface_reelle_bati": 73.0,
      "nombre_pieces_principales": 3.0,
      "surface_terrain": 1752.0,
      "longitude": 5.25593,
      "latitude": 46.339466,
      "code_departement": "01",
      "code_commune": "01232",
      "nom_commune": "Marboz",
      "year": 2017,
      "price_m2": 4931.506849315068
    },
    {
      "nature_mutation": "Vente",
      "type_local": "Appartement",
      "valeur_fonciere": 360000.0,
      "surface_reelle_bati": 81.0,
      "nombre_pieces_principales": 3.0,
      "surface_terrain": 1752.0,
      "longitude": 5.25593,
      "latitude": 46.339466,
      "code_departement": "01",
      "code_commune": "01232",
      "nom_commune": "Marboz",
      "year": 2017,
      "price_m2": 4444.444444444444
    },
    {
      "nature_mutation": "Vente",
      "type_local": "Appartement",
      "valeur_fonciere": 360000.0,
      "surface_reelle_bati": 64.0,
      "nombre_pieces_principales": 1.0,
      "surface_terrain": 1752.0,
      "longitude": 5.25593,
      "latitude": 46.339466,
      "code_departement": "01",
      "code_commune": "01232",
      "nom_commune": "Marboz",
      "year": 2017,
      "price_m2": 5625.0
    },
    {
      "nature_mutation": "Vente",
      "type_local": "Appartement",
      "valeur_fonciere": 360000.0,
      "surface_reelle_bati": 43.0,
      "nombre_pieces_principales": 1.0,
      "surface_terrain": 1752.0,
      "longitude": 5.25593,
      "latitude": 46.339466,
      "code_departement": "01",
      "code_commune": "01232",
      "nom_commune": "Marboz",
      "year": 2017,
      "price_m2": 8372.093023255815
    },
    {
      "nature_mutation": "Vente",
      "type_local": "Appartement",
      "valeur_fonciere": 360000.0,
      "surface_reelle_bati": 54.0,
      "nombre_pieces_principales": 1.0,
      "surface_terrain": 1752.0,
      "longitude": 5.25593,
      "latitude": 46.339466,
      "code_departement": "01",
      "code_commune": "01232",
      "nom_commune": "Marboz",
      "year": 2017,
      "price_m2": 6666.666666666667
    },
    {
      "nature_mutation": "Vente",
      "type_local": "Appartement",
      "valeur_fonciere": 108000.0,
      "surface_reelle_bati": 88.0,
      "nombre_pieces_principales": 4.0,
      "surface_terrain": null,
      "longitude": 5.30035,
      "latitude": 46.294079,
      "code_departement": "01",
      "code_commune": "01350",
      "nom_commune": "Saint-Étienne-du-Bois",
      "year": 2017,
      "price_m2": 1227.2727272727273
    },
    {
      "nature_mutation": "Vente",
      "type_local": "Maison",
      "valeur_fonciere": 94000.0,
      "surface_reelle_bati": 140.0,
      "nombre_pieces_principales": 5.0,
      "surface_terrain": 862.0,
      "longitude": 5.213459,
      "latitude": 46.255185,
      "code_departement": "01",
      "code_commune": "01451",
      "nom_commune": "Viriat",
      "year": 2017,
      "price_m2": 671.4285714285714
    },
    {
      "nature_mutation": "Vente",
      "type_local": "Appartement",
      "valeur_fonciere": 137560.0,
      "surface_reelle_bati": 61.0,
      "nombre_pieces_principales": 3.0,
      "surface_terrain": null,
      "longitude": 5.240439,
      "latitude": 46.205398,
      "code_departement": "01",
      "code_commune": "01053",
      "nom_commune": "Bourg-en-Bresse",
      "year": 2017,
      "price_m2": 2255.0819672131147
    },
    {
      "nature_mutation": "Vente",
      "type_local": "Appartement",
      "valeur_fonciere": 137560.0,
      "surface_reelle_bati": 77.0,
      "nombre_pieces_principales": 4.0,
      "surface_terrain": null,
      "longitude": 5.240439,
      "latitude": 46.205398,
      "code_departement": "01",
      "code_commune": "01053",
      "nom_commune": "Bourg-en-Bresse",
      "year": 2017,
      "price_m2": 1786.4935064935064
    },
    {
      "nature_mutation": "Vente",
      "type_local": "Maison",
      "valeur_fonciere": 182000.0,
      "surface_reelle_bati": 105.0,
      "nombre_pieces_principales": 5.0,
      "surface_terrain": 500.0,
      "longitude": 5.339394,
      "latitude": 46.348377,
      "code_departement": "01",
      "code_commune": "01432",
      "nom_commune": "Verjon",
      "year": 2017,
      "price_m2": 1733.3333333333333
    },
    {
      "nature_mutation": "Vente",
      "type_local": "Maison",
      "valeur_fonciere": 182000.0,
      "surface_reelle_bati": 105.0,
      "nombre_pieces_principales": 5.0,
      "surface_terrain": 1000.0,
      "longitude": 5.339394,
      "latitude": 46.348377,
      "code_departement": "01",
      "code_commune": "01432",
      "nom_commune": "Verjon",
      "year": 2017,
      "price_m2": 1733.3333333333333
    },
    {
      "nature_mutation": "Vente",
      "type_local": "Maison",
      "valeur_fonciere": 207550.0,
      "surface_reelle_bati": 135.0,
      "nombre_pieces_principales": 5.0,
      "surface_terrain": 1005.0,
      "longitude": 5.14835,
      "latitude": 46.383632,
      "code_departement": "01",
      "code_commune": "01163",
      "nom_commune": "Foissiat",
      "year": 2017,
      "price_m2": 1537.4074074074074
    },
    {
      "nature_mutation": "Vente",
      "type_local": "Appartement",
      "valeur_fonciere": 70000.0,
      "surface_reelle_bati": 55.0,
      "nombre_pieces_principales": 3.0,
      "surface_terrain": 638.0,
      "longitude": 4.940421,
      "latitude": 46.438191,
      "code_departement": "01",
      "code_commune": "01305",
      "nom_commune": "Pont-de-Vaux",
      "year": 2017,
      "price_m2": 1272.7272727272727
    },
    {
      "nature_mutation": "Vente",
      "type_local": "Appartement",
      "valeur_fonciere": 70000.0,
      "surface_reelle_bati": 67.0,
      "nombre_pieces_principales": 3.0,
      "surface_terrain": 638.0,
      "longitude": 4.940421,
      "latitude": 46.438191,
      "code_departement": "01",
      "code_commune": "01305",
      "nom_commune": "Pont-de-Vaux",
      "year": 2017,
      "price_m2": 1044.7761194029852
    },
    {
      "nature_mutation": "Vente",
      "type_local": "Maison",
      "valeur_fonciere": 126000.0,
      "surface_reelle_bati": 70.0,
      "nombre_pieces_principales": 3.0,
      "surface_terrain": null,
      "longitude": 5.163302,
      "latitude": 46.312253,
      "code_departement": "01",
      "code_commune": "01130",
      "nom_commune": "Bresse Vallons",
      "year": 2017,
      "price_m2": 1800.0
    },
    {
      "nature_mutation": "Vente",
      "type_local": "Appartement",
      "valeur_fonciere": 59610.0,
      "surface_reelle_bati": 36.0,
      "nombre_pieces_principales": 2.0,
      "surface_terrain": null,
      "longitude": 5.216537,
      "latitude": 46.19879,
      "code_departement": "01",
      "code_commune": "01053",
      "nom_commune": "Bourg-en-Bresse",
      "year": 2017,
      "price_m2": 1655.8333333333333
    },
    {
      "nature_mutation": "Vente",
      "type_local": "Maison",
      "valeur_fonciere": 174100.0,
      "surface_reelle_bati": 87.0,
      "nombre_pieces_principales": 4.0,
      "surface_terrain": 801.0,
      "longitude": 4.944784,
      "latitude": 46.312788,
      "code_departement": "01",
      "code_commune": "01025",
      "nom_commune": "Bâgé-Dommartin",
      "year": 2017,
      "price_m2": 2001.1494252873563
    },
    {
      "nature_mutation": "Vente",
      "type_local": "Maison",
      "valeur_fonciere": 132500.0,
      "surface_reelle_bati": 87.0,
      "nombre_pieces_principales": 4.0,
      "surface_terrain": 502.0,
      "longitude": 5.296834,
      "latitude": 46.370457,
      "code_departement": "01",
      "code_commune": "01296",
      "nom_commune": "Pirajoux",
      "year": 2017,
      "price_m2": 1522.9885057471265
    },
    {
      "nature_mutation": "Vente",
      "type_local": "Appartement",
      "valeur_fonciere": 130000.0,
      "surface_reelle_bati": 105.0,
      "nombre_pieces_principales": 3.0,
      "surface_terrain": 826.0,
      "longitude": 5.420313,
      "latitude": 46.224538,
      "code_departement": "01",
      "code_commune": "01408",
      "nom_commune": "Simandre-sur-Suran",
      "year": 2017,
      "price_m2": 1238.095238095238
    },
    {
      "nature_mutation": "Vente",
      "type_local": "Appartement",
      "valeur_fonciere": 130000.0,
      "surface_reelle_bati": 44.0,
      "nombre_pieces_principales": 2.0,
      "surface_terrain": 826.0,
      "longitude": 5.420313,
      "latitude": 46.224538,
      "code_departement": "01",
      "code_commune": "01408",
      "nom_commune": "Simandre-sur-Suran",
      "year": 2017,
      "price_m2": 2954.5454545454545
    },
    {
      "nature_mutation": "Vente",
      "type_local": "Appartement",
      "valeur_fonciere": 130000.0,
      "surface_reelle_bati": 44.0,
      "nombre_pieces_principales": 2.0,
      "surface_terrain": 826.0,
      "longitude": 5.420313,
      "latitude": 46.224538,
      "code_departement": "01",
      "code_commune": "01408",
      "nom_commune": "Simandre-sur-Suran",
      "year": 2017,
      "price_m2": 2954.5454545454545
    },
    {
      "nature_mutation": "Vente",
      "type_local": "Maison",
      "valeur_fonciere": 244000.0,
      "surface_reelle_bati": 94.0,
      "nombre_pieces_principales": 4.0,
      "surface_terrain": 1447.0,
      "longitude": null,
      "latitude": null,
      "code_departement": "01",
      "code_commune": "01320",
      "nom_commune": "Replonges",
      "year": 2017,
      "price_m2": 2595.744680851064
    },
    {
      "nature_mutation": "Vente",
      "type_local": "Appartement",
      "valeur_fonciere": 108000.0,
      "surface_reelle_bati": 85.0,
      "nombre_pieces_principales": 3.0,
      "surface_terrain": null,
      "longitude": 4.840717,
      "latitude": 46.304918,
      "code_departement": "01",
      "code_commune": "01370",
      "nom_commune": "Saint-Laurent-sur-Saône",
      "year": 2017,
      "price_m2": 1270.5882352941176
    },
    {
      "nature_mutation": "Vente",
      "type_local": "Maison",
      "valeur_fonciere": 147500.0,
      "surface_reelle_bati": 110.0,
      "nombre_pieces_principales": 3.0,
      "surface_terrain": 1030.0,
      "longitude": 5.348832,
      "latitude": 46.346518,
      "code_departement": "01",
      "code_commune": "01432",
      "nom_commune": "Verjon",
      "year": 2017,
      "price_m2": 1340.909090909091
    },
    {
      "nature_mutation": "Vente",
      "type_local": "Maison",
      "valeur_fonciere": 186000.0,
      "surface_reelle_bati": 100.0,
      "nombre_pieces_principales": 6.0,
      "surface_terrain": 641.0,
      "longitude": 5.190541,
      "latitude": 46.246856,
      "code_departement": "01",
      "code_commune": "01451",
      "nom_commune": "Viriat",
      "year": 2017,
      "price_m2": 1860.0
    },
    {
      "nature_mutation": "Vente",
      "type_local": "Maison",
      "valeur_fonciere": 136000.0,
      "surface_reelle_bati": 111.0,
      "nombre_pieces_principales": 4.0,
      "surface_terrain": 598.0,
      "longitude": 5.070971,
      "latitude": 46.403978,
      "code_departement": "01",
      "code_commune": "01364",
      "nom_commune": "Saint-Jean-sur-Reyssouze",
      "year": 2017,
      "price_m2": 1225.2252252252251
    },
    {
      "nature_mutation": "Vente",
      "type_local": "Maison",
      "valeur_fonciere": 136000.0,
      "surface_reelle_bati": 111.0,
      "nombre_pieces_principales": 4.0,
      "surface_terrain": 1200.0,
      "longitude": 5.070971,
      "latitude": 46.403978,
      "code_departement": "01",
      "code_commune": "01364",
      "nom_commune": "Saint-Jean-sur-Reyssouze",
      "year": 2017,
      "price_m2": 1225.2252252252251
    },
    {
      "nature_mutation": "Vente",
      "type_local": "Maison",
      "valeur_fonciere": 80000.0,
      "surface_reelle_bati": 100.0,
      "nombre_pieces_principales": 3.0,
      "surface_terrain": 132.0,
      "longitude": 4.938312,
      "latitude": 46.430492,
      "code_departement": "01",
      "code_commune": "01305",
      "nom_commune": "Pont-de-Vaux",
      "year": 2017,
      "price_m2": 800.0
    },
    {
      "nature_mutation": "Vente",
      "type_local": "Maison",
      "valeur_fonciere": 105900.0,
      "surface_reelle_bati": 105.0,
      "nombre_pieces_principales": 4.0,
      "surface_terrain": 258.0,
      "longitude": 5.346825,
      "latitude": 46.38774,
      "code_departement": "01",
      "code_commune": "01108",
      "nom_commune": "Coligny",
      "year": 2017,
      "price_m2": 1008.5714285714286
    },
    {
      "nature_mutation": "Vente",
      "type_local": "Maison",
      "valeur_fonciere": 152000.0,
      "surface_reelle_bati": 144.0,
      "nombre_pieces_principales": 5.0,
      "surface_terrain": 155.0,
      "longitude": 5.31658,
      "latitude": 46.040978,
      "code_departement": "01",
      "code_commune": "01430",
      "nom_commune": "Varambon",
      "year": 2017,
      "price_m2": 1055.5555555555557
    },
    {
      "nature_mutation": "Vente",
      "type_local": "Maison",
      "valeur_fonciere": 151500.0,
      "surface_reelle_bati": 157.0,
      "nombre_pieces_principales": 5.0,
      "surface_terrain": null,
      "longitude": 5.106248,
      "latitude": 46.244843,
      "code_departement": "01",
      "code_commune": "01301",
      "nom_commune": "Polliat",
      "year": 2017,
      "price_m2": 964.968152866242
    },
    {
      "nature_mutation": "Vente",
      "type_local": "Maison",
      "valeur_fonciere": 196000.0,
      "surface_reelle_bati": 128.0,
      "nombre_pieces_principales": 4.0,
      "surface_terrain": 800.0,
      "longitude": 4.972339,
      "latitude": 46.242589,
      "code_departement": "01",
      "code_commune": "01291",
      "nom_commune": "Perrex",
      "year": 2017,
      "price_m2": 1531.25
    },
    {
      "nature_mutation": "Vente",
      "type_local": "Maison",
      "valeur_fonciere": 196000.0,
      "surface_reelle_bati": 106.0,
      "nombre_pieces_principales": 3.0,
      "surface_terrain": 675.0,
      "longitude": 4.972287,
      "latitude": 46.242815,
      "code_departement": "01",
      "code_commune": "01291",
      "nom_commune": "Perrex",
      "year": 2017,
      "price_m2": 1849.0566037735848
    },
    {
      "nature_mutation": "Vente",
      "type_local": "Maison",
      "valeur_fonciere": 150000.0,
      "surface_reelle_bati": 96.0,
      "nombre_pieces_principales": 5.0,
      "surface_terrain": 2002.0,
      "longitude": 4.929863,
      "latitude": 46.324256,
      "code_departement": "01",
      "code_commune": "01025",
      "nom_commune": "Bâgé-Dommartin",
      "year": 2017,
      "price_m2": 1562.5
    },
    {
      "nature_mutation": "Vente",
      "type_local": "Maison",
      "valeur_fonciere": 150000.0,
      "surface_reelle_bati": 183.0,
      "nombre_pieces_principales": 4.0,
      "surface_terrain": 966.0,
      "longitude": 5.122728,
      "latitude": 46.199119,
      "code_departement": "01",
      "code_commune": "01264",
      "nom_commune": "Montracol",
      "year": 2017,
      "price_m2": 819.672131147541
    },
    {
      "nature_mutation": "Vente",
      "type_local": "Maison",
      "valeur_fonciere": 120000.0,
      "surface_reelle_bati": 95.0,
      "nombre_pieces_principales": 2.0,
      "surface_terrain": 2860.0,
      "longitude": 5.292832,
      "latitude": 46.37411,
      "code_departement": "01",
      "code_commune": "01296",
      "nom_commune": "Pirajoux",
      "year": 2017,
      "price_m2": 1263.157894736842
    },
    {
      "nature_mutation": "Vente",
      "type_local": "Appartement",
      "valeur_fonciere": 78000.0,
      "surface_reelle_bati": 68.0,
      "nombre_pieces_principales": 4.0,
      "surface_terrain": null,
      "longitude": 5.215078,
      "latitude": 46.204169,
      "code_departement": "01",
      "code_commune": "01053",
      "nom_commune": "Bourg-en-Bresse",
      "year": 2017,
      "price_m2": 1147.0588235294117
    },
    {
      "nature_mutation": "Vente",
      "type_local": "Appartement",
      "valeur_fonciere": 68000.0,
      "surface_reelle_bati": 35.0,
      "nombre_pieces_principales": 1.0,
      "surface_terrain": null,
      "longitude": 5.233681,
      "latitude": 46.197912,
      "code_departement": "01",
      "code_commune": "01053",
      "nom_commune": "Bourg-en-Bresse",
      "year": 2017,
      "price_m2": 1942.857142857143
    },
    {
      "nature_mutation": "Vente",
      "type_local": "Maison",
      "valeur_fonciere": 110000.0,
      "surface_reelle_bati": 104.0,
      "nombre_pieces_principales": 4.0,
      "surface_terrain": 2969.0,
      "longitude": 5.11923,
      "latitude": 46.4285,
      "code_departement": "01",
      "code_commune": "01230",
      "nom_commune": "Mantenay-Montlin",
      "year": 2017,
      "price_m2": 1057.6923076923076
    },
    {
      "nature_mutation": "Vente",
      "type_local": "Appartement",
      "valeur_fonciere": 95000.0,
      "surface_reelle_bati": 50.0,
      "nombre_pieces_principales": 3.0,
      "surface_terrain": null,
      "longitude": 5.128741,
      "latitude": 46.337226,
      "code_departement": "01",
      "code_commune": "01266",
      "nom_commune": "Montrevel-en-Bresse",
      "year": 2017,
      "price_m2": 1900.0
    },
    {
      "nature_mutation": "Vente",
      "type_local": "Maison",
      "valeur_fonciere": 100000.0,
      "surface_reelle_bati": 141.0,
      "nombre_pieces_principales": 4.0,
      "surface_terrain": 967.0,
      "longitude": 4.865292,
      "latitude": 46.262963,
      "code_departement": "01",
      "code_commune": "01179",
      "nom_commune": "Grièges",
      "year": 2017,
      "price_m2": 709.2198581560284
    },
    {
      "nature_mutation": "Vente",
      "type_local": "Maison",
      "valeur_fonciere": 209000.0,
      "surface_reelle_bati": 123.0,
      "nombre_pieces_principales": 5.0,
      "surface_terrain": 116.0,
      "longitude": 5.194234,
      "latitude": 46.200056,
      "code_departement": "01",
      "code_commune": "01344",
      "nom_commune": "Saint-Denis-lès-Bourg",
      "year": 2017,
      "price_m2": 1699.1869918699188
    },
    {
      "nature_mutation": "Vente",
      "type_local": "Appartement",
      "valeur_fonciere": 100600.0,
      "surface_reelle_bati": 70.0,
      "nombre_pieces_principales": 3.0,
      "surface_terrain": null,
      "longitude": 5.219136,
      "latitude": 46.198272,
      "code_departement": "01",
      "code_commune": "01053",
      "nom_commune": "Bourg-en-Bresse",
      "year": 2017,
      "price_m2": 1437.142857142857
    },
    {
      "nature_mutation": "Vente",
      "type_local": "Maison",
      "valeur_fonciere": 200000.0,
      "surface_reelle_bati": 97.0,
      "nombre_pieces_principales": 4.0,
      "surface_terrain": 793.0,
      "longitude": 5.283311,
      "latitude": 46.176755,
      "code_departement": "01",
      "code_commune": "01254",
      "nom_commune": "Montagnat",
      "year": 2017,
      "price_m2": 2061.855670103093
    },
    {
      "nature_mutation": "Vente",
      "type_local": "Appartement",
      "valeur_fonciere": 45000.0,
      "surface_reelle_bati": 65.0,
      "nombre_pieces_principales": 4.0,
      "surface_terrain": null,
      "longitude": 5.209305,
      "latitude": 46.194082,
      "code_departement": "01",
      "code_commune": "01053",
      "nom_commune": "Bourg-en-Bresse",
      "year": 2017,
      "price_m2": 692.3076923076923
    },
    {
      "nature_mutation": "Vente",
      "type_local": "Maison",
      "valeur_fonciere": 83800.0,
      "surface_reelle_bati": 90.0,
      "nombre_pieces_principales": 4.0,
      "surface_terrain": 232.0,
      "longitude": 5.325377,
      "latitude": 46.178899,
      "code_departement": "01",
      "code_commune": "01072",
      "nom_commune": "Ceyzériat",
      "year": 2017,
      "price_m2": 931.1111111111111
    },
    {
      "nature_mutation": "Vente",
      "type_local": "Appartement",
      "valeur_fonciere": 74000.0,
      "surface_reelle_bati": 37.0,
      "nombre_pieces_principales": 2.0,
      "surface_terrain": null,
      "longitude": 5.218844,
      "latitude": 46.210472,
      "code_departement": "01",
      "code_commune": "01053",
      "nom_commune": "Bourg-en-Bresse",
      "year": 2017,
      "price_m2": 2000.0
    },
    {
      "nature_mutation": "Vente",
      "type_local": "Appartement",
      "valeur_fonciere": 74000.0,
      "surface_reelle_bati": 32.0,
      "nombre_pieces_principales": 2.0,
      "surface_terrain": null,
      "longitude": 5.218844,
      "latitude": 46.210472,
      "code_departement": "01",
      "code_commune": "01053",
      "nom_commune": "Bourg-en-Bresse",
      "year": 2017,
      "price_m2": 2312.5
    },
    {
      "nature_mutation": "Vente",
      "type_local": "Appartement",
      "valeur_fonciere": 74000.0,
      "surface_reelle_bati": 37.0,
      "nombre_pieces_principales": 2.0,
      "surface_terrain": null,
      "longitude": 5.218844,
      "latitude": 46.210472,
      "code_departement": "01",
      "code_commune": "01053",
      "nom_commune": "Bourg-en-Bresse",
      "year": 2017,
      "price_m2": 2000.0
    },
    {
      "nature_mutation": "Vente",
      "type_local": "Maison",
      "valeur_fonciere": 229000.0,
      "surface_reelle_bati": 102.0,
      "nombre_pieces_principales": 4.0,
      "surface_terrain": 1270.0,
      "longitude": 5.354449,
      "latitude": 46.057272,
      "code_departement": "01",
      "code_commune": "01304",
      "nom_commune": "Pont-d'Ain",
      "year": 2017,
      "price_m2": 2245.098039215686
    },
    {
      "nature_mutation": "Vente",
      "type_local": "Maison",
      "valeur_fonciere": 192020.0,
      "surface_reelle_bati": 102.0,
      "nombre_pieces_principales": 4.0,
      "surface_terrain": 723.0,
      "longitude": 5.340279,
      "latitude": 46.055849,
      "code_departement": "01",
      "code_commune": "01304",
      "nom_commune": "Pont-d'Ain",
      "year": 2017,
      "price_m2": 1882.549019607843
    },
    {
      "nature_mutation": "Vente",
      "type_local": "Appartement",
      "valeur_fonciere": 51320.0,
      "surface_reelle_bati": 32.0,
      "nombre_pieces_principales": 1.0,
      "surface_terrain": null,
      "longitude": 5.229847,
      "latitude": 46.206687,
      "code_departement": "01",
      "code_commune": "01053",
      "nom_commune": "Bourg-en-Bresse",
      "year": 2017,
      "price_m2": 1603.75
    },
    {
      "nature_mutation": "Vente",
      "type_local": "Maison",
      "valeur_fonciere": 105000.0,
      "surface_reelle_bati": 93.0,
      "nombre_pieces_principales": 3.0,
      "surface_terrain": 413.0,
      "longitude": 5.346764,
      "latitude": 46.382121,
      "code_departement": "01",
      "code_commune": "01108",
      "nom_commune": "Coligny",
      "year": 2017,
      "price_m2": 1129.032258064516
    },
    {
      "nature_mutation": "Vente",
      "type_local": "Appartement",
      "valeur_fonciere": 134720.0,
      "surface_reelle_bati": 51.0,
      "nombre_pieces_principales": 2.0,
      "surface_terrain": null,
      "longitude": 5.210758,
      "latitude": 46.195702,
      "code_departement": "01",
      "code_commune": "01053",
      "nom_commune": "Bourg-en-Bresse",
      "year": 2017,
      "price_m2": 2641.5686274509803
    },
    {
      "nature_mutation": "Vente",
      "type_local": "Maison",
      "valeur_fonciere": 176000.0,
      "surface_reelle_bati": 114.0,
      "nombre_pieces_principales": 6.0,
      "surface_terrain": 1233.0,
      "longitude": 5.214304,
      "latitude": 46.21728,
      "code_departement": "01",
      "code_commune": "01451",
      "nom_commune": "Viriat",
      "year": 2017,
      "price_m2": 1543.859649122807
    },
    {
      "nature_mutation": "Vente",
      "type_local": "Maison",
      "valeur_fonciere": 351750.0,
      "surface_reelle_bati": 135.0,
      "nombre_pieces_principales": 5.0,
      "surface_terrain": 1985.0,
      "longitude": 5.207905,
      "latitude": 46.340671,
      "code_departement": "01",
      "code_commune": "01130",
      "nom_commune": "Bresse Vallons",
      "year": 2017,
      "price_m2": 2605.5555555555557
    },
    {
      "nature_mutation": "Vente",
      "type_local": "Maison",
      "valeur_fonciere": 207000.0,
      "surface_reelle_bati": 97.0,
      "nombre_pieces_principales": 4.0,
      "surface_terrain": 624.0,
      "longitude": 5.19798,
      "latitude": 46.234366,
      "code_departement": "01",
      "code_commune": "01451",
      "nom_commune": "Viriat",
      "year": 2017,
      "price_m2": 2134.020618556701
    },
    {
      "nature_mutation": "Vente",
      "type_local": "Maison",
      "valeur_fonciere": 90000.0,
      "surface_reelle_bati": 106.0,
      "nombre_pieces_principales": 4.0,
      "surface_terrain": 999.0,
      "longitude": 5.045458,
      "latitude": 46.349604,
      "code_departement": "01",
      "code_commune": "01236",
      "nom_commune": "Marsonnas",
      "year": 2017,
      "price_m2": 849.0566037735849
    },
    {
      "nature_mutation": "Vente",
      "type_local": "Maison",
      "valeur_fonciere": 90000.0,
      "surface_reelle_bati": 106.0,
      "nombre_pieces_principales": 4.0,
      "surface_terrain": 792.0,
      "longitude": 5.045458,
      "latitude": 46.349604,
      "code_departement": "01",
      "code_commune": "01236",
      "nom_commune": "Marsonnas",
      "year": 2017,
      "price_m2": 849.0566037735849
    },
    {
      "nature_mutation": "Vente",
      "type_local": "Appartement",
      "valeur_fonciere": 141000.0,
      "surface_reelle_bati": 95.0,
      "nombre_pieces_principales": 3.0,
      "surface_terrain": null,
      "longitude": 4.8405,
      "latitude": 46.304896,
      "code_departement": "01",
      "code_commune": "01370",
      "nom_commune": "Saint-Laurent-sur-Saône",
      "year": 2017,
      "price_m2": 1484.2105263157894
    },
    {
      "nature_mutation": "Vente",
      "type_local": "Maison",
      "valeur_fonciere": 72500.0,
      "surface_reelle_bati": 53.0,
      "nombre_pieces_principales": 4.0,
      "surface_terrain": 708.0,
      "longitude": 5.027265,
      "latitude": 46.374062,
      "code_departement": "01",
      "code_commune": "01040",
      "nom_commune": "Béréziat",
      "year": 2017,
      "price_m2": 1367.9245283018868
    },
    {
      "nature_mutation": "Vente",
      "type_local": "Maison",
      "valeur_fonciere": 120000.0,
      "surface_reelle_bati": 90.0,
      "nombre_pieces_principales": 2.0,
      "surface_terrain": 126.0,
      "longitude": 5.381674,
      "latitude": 46.243351,
      "code_departement": "01",
      "code_commune": "01426",
      "nom_commune": "Val-Revermont",
      "year": 2017,
      "price_m2": 1333.3333333333333
    },
    {
      "nature_mutation": "Vente",
      "type_local": "Maison",
      "valeur_fonciere": 100000.0,
      "surface_reelle_bati": 67.0,
      "nombre_pieces_principales": 3.0,
      "surface_terrain": 192.0,
      "longitude": 5.297831,
      "latitude": 46.284859,
      "code_departement": "01",
      "code_commune": "01350",
      "nom_commune": "Saint-Étienne-du-Bois",
      "year": 2017,
      "price_m2": 1492.5373134328358
    },
    {
      "nature_mutation": "Vente",
      "type_local": "Maison",
      "valeur_fonciere": 236750.0,
      "surface_reelle_bati": 106.0,
      "nombre_pieces_principales": 4.0,
      "surface_terrain": 800.0,
      "longitude": 5.200154,
      "latitude": 46.114764,
      "code_departement": "01",
      "code_commune": "01211",
      "nom_commune": "Lent",
      "year": 2017,
      "price_m2": 2233.490566037736
    },
    {
      "nature_mutation": "Vente",
      "type_local": "Maison",
      "valeur_fonciere": 236750.0,
      "surface_reelle_bati": 106.0,
      "nombre_pieces_principales": 4.0,
      "surface_terrain": 1207.0,
      "longitude": 5.200154,
      "latitude": 46.114764,
      "code_departement": "01",
      "code_commune": "01211",
      "nom_commune": "Lent",
      "year": 2017,
      "price_m2": 2233.490566037736
    },
    {
      "nature_mutation": "Vente",
      "type_local": "Appartement",
      "valeur_fonciere": 72500.0,
      "surface_reelle_bati": 51.0,
      "nombre_pieces_principales": 2.0,
      "surface_terrain": null,
      "longitude": 5.226241,
      "latitude": 46.214825,
      "code_departement": "01",
      "code_commune": "01053",
      "nom_commune": "Bourg-en-Bresse",
      "year": 2017,
      "price_m2": 1421.5686274509803
    },
    {
      "nature_mutation": "Vente",
      "type_local": "Appartement",
      "valeur_fonciere": 120000.0,
      "surface_reelle_bati": 82.0,
      "nombre_pieces_principales": 4.0,
      "surface_terrain": null,
      "longitude": 5.220739,
      "latitude": 46.205283,
      "code_departement": "01",
      "code_commune": "01053",
      "nom_commune": "Bourg-en-Bresse",
      "year": 2017,
      "price_m2": 1463.4146341463415
    },
    {
      "nature_mutation": "Vente",
      "type_local": "Appartement",
      "valeur_fonciere": 42000.0,
      "surface_reelle_bati": 27.0,
      "nombre_pieces_principales": 1.0,
      "surface_terrain": null,
      "longitude": 5.228636,
      "latitude": 46.210797,
      "code_departement": "01",
      "code_commune": "01053",
      "nom_commune": "Bourg-en-Bresse",
      "year": 2017,
      "price_m2": 1555.5555555555557
    },
    {
      "nature_mutation": "Vente",
      "type_local": "Appartement",
      "valeur_fonciere": 75000.0,
      "surface_reelle_bati": 77.0,
      "nombre_pieces_principales": 4.0,
      "surface_terrain": null,
      "longitude": 5.241865,
      "latitude": 46.204997,
      "code_departement": "01",
      "code_commune": "01053",
      "nom_commune": "Bourg-en-Bresse",
      "year": 2017,
      "price_m2": 974.025974025974
    },
    {
      "nature_mutation": "Vente",
      "type_local": "Appartement",
      "valeur_fonciere": 65000.0,
      "surface_reelle_bati": 56.0,
      "nombre_pieces_principales": 1.0,
      "surface_terrain": null,
      "longitude": 5.231188,
      "latitude": 46.190278,
      "code_departement": "01",
      "code_commune": "01053",
      "nom_commune": "Bourg-en-Bresse",
      "year": 2017,
      "price_m2": 1160.7142857142858
    },
    {
      "nature_mutation": "Vente",
      "type_local": "Appartement",
      "valeur_fonciere": 177000.0,
      "surface_reelle_bati": 74.0,
      "nombre_pieces_principales": 3.0,
      "surface_terrain": null,
      "longitude": 5.200117,
      "latitude": 46.210292,
      "code_departement": "01",
      "code_commune": "01344",
      "nom_commune": "Saint-Denis-lès-Bourg",
      "year": 2017,
      "price_m2": 2391.891891891892
    },
    {
      "nature_mutation": "Vente",
      "type_local": "Maison",
      "valeur_fonciere": 294500.0,
      "surface_reelle_bati": 136.0,
      "nombre_pieces_principales": 5.0,
      "surface_terrain": 893.0,
      "longitude": 5.289091,
      "latitude": 46.169547,
      "code_departement": "01",
      "code_commune": "01254",
      "nom_commune": "Montagnat",
      "year": 2017,
      "price_m2": 2165.4411764705883
    },
    {
      "nature_mutation": "Vente",
      "type_local": "Maison",
      "valeur_fonciere": 173300.0,
      "surface_reelle_bati": 104.0,
      "nombre_pieces_principales": 5.0,
      "surface_terrain": 1519.0,
      "longitude": 4.996013,
      "latitude": 46.4127,
      "code_departement": "01",
      "code_commune": "01352",
      "nom_commune": "Saint-Étienne-sur-Reyssouze",
      "year": 2017,
      "price_m2": 1666.3461538461538
    },
    {
      "nature_mutation": "Vente",
      "type_local": "Appartement",
      "valeur_fonciere": 120000.0,
      "surface_reelle_bati": 88.0,
      "nombre_pieces_principales": 4.0,
      "surface_terrain": null,
      "longitude": null,
      "latitude": null,
      "code_departement": "01",
      "code_commune": "01320",
      "nom_commune": "Replonges",
      "year": 2017,
      "price_m2": 1363.6363636363637
    },
    {
      "nature_mutation": "Vente",
      "type_local": "Maison",
      "valeur_fonciere": 156000.0,
      "surface_reelle_bati": 96.0,
      "nombre_pieces_principales": 5.0,
      "surface_terrain": 410.0,
      "longitude": 4.885398,
      "latitude": 46.258837,
      "code_departement": "01",
      "code_commune": "01306",
      "nom_commune": "Pont-de-Veyle",
      "year": 2017,
      "price_m2": 1625.0
    },
    {
      "nature_mutation": "Vente",
      "type_local": "Appartement",
      "valeur_fonciere": 63250.0,
      "surface_reelle_bati": 28.0,
      "nombre_pieces_principales": 1.0,
      "surface_terrain": null,
      "longitude": 5.231594,
      "latitude": 46.201065,
      "code_departement": "01",
      "code_commune": "01053",
      "nom_commune": "Bourg-en-Bresse",
      "year": 2017,
      "price_m2": 2258.9285714285716
    },
    {
      "nature_mutation": "Vente",
      "type_local": "Maison",
      "valeur_fonciere": 80000.0,
      "surface_reelle_bati": 79.0,
      "nombre_pieces_principales": 4.0,
      "surface_terrain": 4088.0,
      "longitude": 5.222641,
      "latitude": 46.431491,
      "code_departement": "01",
      "code_commune": "01124",
      "nom_commune": "Cormoz",
      "year": 2017,
      "price_m2": 1012.6582278481013
    },
    {
      "nature_mutation": "Vente",
      "type_local": "Maison",
      "valeur_fonciere": 238500.0,
      "surface_reelle_bati": 40.0,
      "nombre_pieces_principales": 1.0,
      "surface_terrain": 974.0,
      "longitude": 5.299019,
      "latitude": 46.087969,
      "code_departement": "01",
      "code_commune": "01374",
      "nom_commune": "Saint-Martin-du-Mont",
      "year": 2017,
      "price_m2": 5962.5
    },
    {
      "nature_mutation": "Vente",
      "type_local": "Maison",
      "valeur_fonciere": 238500.0,
      "surface_reelle_bati": 190.0,
      "nombre_pieces_principales": 5.0,
      "surface_terrain": 974.0,
      "longitude": 5.299019,
      "latitude": 46.087969,
      "code_departement": "01",
      "code_commune": "01374",
      "nom_commune": "Saint-Martin-du-Mont",
      "year": 2017,
      "price_m2": 1255.2631578947369
    },
    {
      "nature_mutation": "Vente",
      "type_local": "Appartement",
      "valeur_fonciere": 76800.0,
      "surface_reelle_bati": 49.0,
      "nombre_pieces_principales": 2.0,
      "surface_terrain": null,
      "longitude": 5.228667,
      "latitude": 46.19841,
      "code_departement": "01",
      "code_commune": "01053",
      "nom_commune": "Bourg-en-Bresse",
      "year": 2017,
      "price_m2": 1567.3469387755101
    },
    {
      "nature_mutation": "Vente",
      "type_local": "Appartement",
      "valeur_fonciere": 76800.0,
      "surface_reelle_bati": 59.0,
      "nombre_pieces_principales": 3.0,
      "surface_terrain": null,
      "longitude": 5.228667,
      "latitude": 46.19841,
      "code_departement": "01",
      "code_commune": "01053",
      "nom_commune": "Bourg-en-Bresse",
      "year": 2017,
      "price_m2": 1301.6949152542372
    },
    {
      "nature_mutation": "Vente",
      "type_local": "Maison",
      "valeur_fonciere": 142300.0,
      "surface_reelle_bati": 77.0,
      "nombre_pieces_principales": 4.0,
      "surface_terrain": 236.0,
      "longitude": 5.2299,
      "latitude": 46.222079,
      "code_departement": "01",
      "code_commune": "01053",
      "nom_commune": "Bourg-en-Bresse",
      "year": 2017,
      "price_m2": 1848.051948051948
    },
    {
      "nature_mutation": "Vente",
      "type_local": "Maison",
      "valeur_fonciere": 51000.0,
      "surface_reelle_bati": 90.0,
      "nombre_pieces_principales": 5.0,
      "surface_terrain": 239.0,
      "longitude": 5.231811,
      "latitude": 46.199612,
      "code_departement": "01",
      "code_commune": "01053",
      "nom_commune": "Bourg-en-Bresse",
      "year": 2017,
      "price_m2": 566.6666666666666
    },
    {
      "nature_mutation": "Vente",
      "type_local": "Appartement",
      "valeur_fonciere": 66900.0,
      "surface_reelle_bati": 69.0,
      "nombre_pieces_principales": 3.0,
      "surface_terrain": null,
      "longitude": 5.060416,
      "latitude": 46.30593,
      "code_departement": "01",
      "code_commune": "01346",
      "nom_commune": "Saint-Didier-d'Aussiat",
      "year": 2017,
      "price_m2": 969.5652173913044
    },
    {
      "nature_mutation": "Vente",
      "type_local": "Appartement",
      "valeur_fonciere": 66900.0,
      "surface_reelle_bati": 62.0,
      "nombre_pieces_principales": 3.0,
      "surface_terrain": null,
      "longitude": 5.060416,
      "latitude": 46.30593,
      "code_departement": "01",
      "code_commune": "01346",
      "nom_commune": "Saint-Didier-d'Aussiat",
      "year": 2017,
      "price_m2": 1079.032258064516
    },
    {
      "nature_mutation": "Vente",
      "type_local": "Appartement",
      "valeur_fonciere": 128000.0,
      "surface_reelle_bati": 61.0,
      "nombre_pieces_principales": 3.0,
      "surface_terrain": null,
      "longitude": 5.225986,
      "latitude": 46.207776,
      "code_departement": "01",
      "code_commune": "01053",
      "nom_commune": "Bourg-en-Bresse",
      "year": 2017,
      "price_m2": 2098.3606557377047
    },
    {
      "nature_mutation": "Vente",
      "type_local": "Appartement",
      "valeur_fonciere": 160000.0,
      "surface_reelle_bati": 51.0,
      "nombre_pieces_principales": 2.0,
      "surface_terrain": 150.0,
      "longitude": 5.218748,
      "latitude": 46.210508,
      "code_departement": "01",
      "code_commune": "01053",
      "nom_commune": "Bourg-en-Bresse",
      "year": 2017,
      "price_m2": 3137.2549019607845
    },
    {
      "nature_mutation": "Vente",
      "type_local": "Appartement",
      "valeur_fonciere": 160000.0,
      "surface_reelle_bati": 132.0,
      "nombre_pieces_principales": 4.0,
      "surface_terrain": 150.0,
      "longitude": 5.218748,
      "latitude": 46.210508,
      "code_departement": "01",
      "code_commune": "01053",
      "nom_commune": "Bourg-en-Bresse",
      "year": 2017,
      "price_m2": 1212.121212121212
    },
    {
      "nature_mutation": "Vente",
      "type_local": "Appartement",
      "valeur_fonciere": 160000.0,
      "surface_reelle_bati": 88.0,
      "nombre_pieces_principales": 3.0,
      "surface_terrain": 150.0,
      "longitude": 5.218748,
      "latitude": 46.210508,
      "code_departement": "01",
      "code_commune": "01053",
      "nom_commune": "Bourg-en-Bresse",
      "year": 2017,
      "price_m2": 1818.1818181818182
    },
    {
      "nature_mutation": "Vente",
      "type_local": "Maison",
      "valeur_fonciere": 124800.0,
      "surface_reelle_bati": 164.0,
      "nombre_pieces_principales": 7.0,
      "surface_terrain": 757.0,
      "longitude": 4.893742,
      "latitude": 46.329227,
      "code_departement": "01",
      "code_commune": "01159",
      "nom_commune": "Feillens",
      "year": 2017,
      "price_m2": 760.9756097560976
    },
    {
      "nature_mutation": "Vente",
      "type_local": "Appartement",
      "valeur_fonciere": 96200.0,
      "surface_reelle_bati": 74.0,
      "nombre_pieces_principales": 3.0,
      "surface_terrain": null,
      "longitude": 5.054536,
      "latitude": 46.2561,
      "code_departement": "01",
      "code_commune": "01115",
      "nom_commune": "Confrançon",
      "year": 2017,
      "price_m2": 1300.0
    },
    {
      "nature_mutation": "Vente",
      "type_local": "Maison",
      "valeur_fonciere": 190500.0,
      "surface_reelle_bati": 100.0,
      "nombre_pieces_principales": 4.0,
      "surface_terrain": 1000.0,
      "longitude": 4.884089,
      "latitude": 46.25204,
      "code_departement": "01",
      "code_commune": "01203",
      "nom_commune": "Laiz",
      "year": 2017,
      "price_m2": 1905.0
    },
    {
      "nature_mutation": "Vente",
      "type_local": "Maison",
      "valeur_fonciere": 190500.0,
      "surface_reelle_bati": 100.0,
      "nombre_pieces_principales": 4.0,
      "surface_terrain": 202.0,
      "longitude": 4.884089,
      "latitude": 46.25204,
      "code_departement": "01",
      "code_commune": "01203",
      "nom_commune": "Laiz",
      "year": 2017,
      "price_m2": 1905.0
    },
    {
      "nature_mutation": "Vente",
      "type_local": "Appartement",
      "valeur_fonciere": 127000.0,
      "surface_reelle_bati": 49.0,
      "nombre_pieces_principales": 2.0,
      "surface_terrain": null,
      "longitude": 4.948396,
      "latitude": 46.380903,
      "code_departement": "01",
      "code_commune": "01102",
      "nom_commune": "Chevroux",
      "year": 2017,
      "price_m2": 2591.8367346938776
    },
    {
      "nature_mutation": "Vente",
      "type_local": "Appartement",
      "valeur_fonciere": 127000.0,
      "surface_reelle_bati": 91.0,
      "nombre_pieces_principales": 5.0,
      "surface_terrain": null,
      "longitude": 4.948396,
      "latitude": 46.380903,
      "code_departement": "01",
      "code_commune": "01102",
      "nom_commune": "Chevroux",
      "year": 2017,
      "price_m2": 1395.6043956043957
    },
    {
      "nature_mutation": "Vente",
      "type_local": "Maison",
      "valeur_fonciere": 1800000.0,
      "surface_reelle_bati": 48.0,
      "nombre_pieces_principales": 2.0,
      "surface_terrain": 320.0,
      "longitude": 5.228323,
      "latitude": 46.214117,
      "code_departement": "01",
      "code_commune": "01053",
      "nom_commune": "Bourg-en-Bresse",
      "year": 2017,
      "price_m2": 37500.0
    },
    {
      "nature_mutation": "Vente",
      "type_local": "Maison",
      "valeur_fonciere": 232000.0,
      "surface_reelle_bati": 190.0,
      "nombre_pieces_principales": 8.0,
      "surface_terrain": 892.0,
      "longitude": 5.160639,
      "latitude": 46.194661,
      "code_departement": "01",
      "code_commune": "01065",
      "nom_commune": "Buellas",
      "year": 2017,
      "price_m2": 1221.0526315789473
    },
    {
      "nature_mutation": "Vente",
      "type_local": "Maison",
      "valeur_fonciere": 232000.0,
      "surface_reelle_bati": 190.0,
      "nombre_pieces_principales": 8.0,
      "surface_terrain": 1236.0,
      "longitude": 5.160639,
      "latitude": 46.194661,
      "code_departement": "01",
      "code_commune": "01065",
      "nom_commune": "Buellas",
      "year": 2017,
      "price_m2": 1221.0526315789473
    },
    {
      "nature_mutation": "Vente",
      "type_local": "Maison",
      "valeur_fonciere": 232000.0,
      "surface_reelle_bati": 51.0,
      "nombre_pieces_principales": 3.0,
      "surface_terrain": 115.0,
      "longitude": 5.159234,
      "latitude": 46.196522,
      "code_departement": "01",
      "code_commune": "01065",
      "nom_commune": "Buellas",
      "year": 2017,
      "price_m2": 4549.019607843137
    },
    {
      "nature_mutation": "Vente",
      "type_local": "Appartement",
      "valeur_fonciere": 43000.0,
      "surface_reelle_bati": 34.0,
      "nombre_pieces_principales": 1.0,
      "surface_terrain": null,
      "longitude": 5.229953,
      "latitude": 46.205469,
      "code_departement": "01",
      "code_commune": "01053",
      "nom_commune": "Bourg-en-Bresse",
      "year": 2017,
      "price_m2": 1264.7058823529412
    },
    {
      "nature_mutation": "Vente",
      "type_local": "Appartement",
      "valeur_fonciere": 96000.0,
      "surface_reelle_bati": 61.0,
      "nombre_pieces_principales": 3.0,
      "surface_terrain": null,
      "longitude": 5.240439,
      "latitude": 46.205398,
      "code_departement": "01",
      "code_commune": "01053",
      "nom_commune": "Bourg-en-Bresse",
      "year": 2017,
      "price_m2": 1573.7704918032787
    },
    {
      "nature_mutation": "Vente",
      "type_local": "Appartement",
      "valeur_fonciere": 96000.0,
      "surface_reelle_bati": 61.0,
      "nombre_pieces_principales": 3.0,
      "surface_terrain": null,
      "longitude": 5.240439,
      "latitude": 46.205398,
      "code_departement": "01",
      "code_commune": "01053",
      "nom_commune": "Bourg-en-Bresse",
      "year": 2017,
      "price_m2": 1573.7704918032787
    },
    {
      "nature_mutation": "Vente",
      "type_local": "Maison",
      "valeur_fonciere": 103000.0,
      "surface_reelle_bati": 80.0,
      "nombre_pieces_principales": 2.0,
      "surface_terrain": 432.0,
      "longitude": 5.389697,
      "latitude": 46.302218,
      "code_departement": "01",
      "code_commune": "01426",
      "nom_commune": "Val-Revermont",
      "year": 2017,
      "price_m2": 1287.5
    },
    {
      "nature_mutation": "Vente",
      "type_local": "Maison",
      "valeur_fonciere": 152000.0,
      "surface_reelle_bati": 90.0,
      "nombre_pieces_principales": 4.0,
      "surface_terrain": 635.0,
      "longitude": 4.976366,
      "latitude": 46.277476,
      "code_departement": "01",
      "code_commune": "01343",
      "nom_commune": "Saint-Cyr-sur-Menthon",
      "year": 2017,
      "price_m2": 1688.888888888889
    },
    {
      "nature_mutation": "Vente",
      "type_local": "Maison",
      "valeur_fonciere": 150000.0,
      "surface_reelle_bati": 86.0,
      "nombre_pieces_principales": 4.0,
      "surface_terrain": 167.0,
      "longitude": 5.252704,
      "latitude": 46.213109,
      "code_departement": "01",
      "code_commune": "01053",
      "nom_commune": "Bourg-en-Bresse",
      "year": 2017,
      "price_m2": 1744.1860465116279
    },
    {
      "nature_mutation": "Vente",
      "type_local": "Maison",
      "valeur_fonciere": 336090.0,
      "surface_reelle_bati": 149.0,
      "nombre_pieces_principales": 6.0,
      "surface_terrain": 1232.0,
      "longitude": 5.302209,
      "latitude": 46.070271,
      "code_departement": "01",
      "code_commune": "01151",
      "nom_commune": "Druillat",
      "year": 2017,
      "price_m2": 2255.6375838926174
    },
    {
      "nature_mutation": "Vente",
      "type_local": "Appartement",
      "valeur_fonciere": 2020875.9,
      "surface_reelle_bati": 69.0,
      "nombre_pieces_principales": 3.0,
      "surface_terrain": null,
      "longitude": 5.159366,
      "latitude": 46.288465,
      "code_departement": "01",
      "code_commune": "01024",
      "nom_commune": "Attignat",
      "year": 2017,
      "price_m2": 29288.05652173913
    },
    {
      "nature_mutation": "Vente",
      "type_local": "Appartement",
      "valeur_fonciere": 2020875.9,
      "surface_reelle_bati": 69.0,
      "nombre_pieces_principales": 3.0,
      "surface_terrain": null,
      "longitude": 5.159366,
      "latitude": 46.288465,
      "code_departement": "01",
      "code_commune": "01024",
      "nom_commune": "Attignat",
      "year": 2017,
      "price_m2": 29288.05652173913
    },
    {
      "nature_mutation": "Vente",
      "type_local": "Appartement",
      "valeur_fonciere": 2020875.9,
      "surface_reelle_bati": 76.0,
      "nombre_pieces_principales": 3.0,
      "surface_terrain": null,
      "longitude": 5.159366,
      "latitude": 46.288465,
      "code_departement": "01",
      "code_commune": "01024",
      "nom_commune": "Attignat",
      "year": 2017,
      "price_m2": 26590.47236842105
    },
    {
      "nature_mutation": "Vente",
      "type_local": "Appartement",
      "valeur_fonciere": 2020875.9,
      "surface_reelle_bati": 69.0,
      "nombre_pieces_principales": 3.0,
      "surface_terrain": null,
      "longitude": 5.159366,
      "latitude": 46.288465,
      "code_departement": "01",
      "code_commune": "01024",
      "nom_commune": "Attignat",
      "year": 2017,
      "price_m2": 29288.05652173913
    },
    {
      "nature_mutation": "Vente",
      "type_local": "Appartement",
      "valeur_fonciere": 2020875.9,
      "surface_reelle_bati": 53.0,
      "nombre_pieces_principales": 2.0,
      "surface_terrain": null,
      "longitude": 5.159366,
      "latitude": 46.288465,
      "code_departement": "01",
      "code_commune": "01024",
      "nom_commune": "Attignat",
      "year": 2017,
      "price_m2": 38129.73396226415
    },
    {
      "nature_mutation": "Vente",
      "type_local": "Appartement",
      "valeur_fonciere": 2020875.9,
      "surface_reelle_bati": 53.0,
      "nombre_pieces_principales": 2.0,
      "surface_terrain": null,
      "longitude": 5.159366,
      "latitude": 46.288465,
      "code_departement": "01",
      "code_commune": "01024",
      "nom_commune": "Attignat",
      "year": 2017,
      "price_m2": 38129.73396226415
    },
    {
      "nature_mutation": "Vente",
      "type_local": "Appartement",
      "valeur_fonciere": 2020875.9,
      "surface_reelle_bati": 69.0,
      "nombre_pieces_principales": 3.0,
      "surface_terrain": null,
      "longitude": 5.159366,
      "latitude": 46.288465,
      "code_departement": "01",
      "code_commune": "01024",
      "nom_commune": "Attignat",
      "year": 2017,
      "price_m2": 29288.05652173913
    },
    {
      "nature_mutation": "Vente",
      "type_local": "Appartement",
      "valeur_fonciere": 2020875.9,
      "surface_reelle_bati": 90.0,
      "nombre_pieces_principales": 4.0,
      "surface_terrain": null,
      "longitude": 5.159366,
      "latitude": 46.288465,
      "code_departement": "01",
      "code_commune": "01024",
      "nom_commune": "Attignat",
      "year": 2017,
      "price_m2": 22454.176666666666
    },
    {
      "nature_mutation": "Vente",
      "type_local": "Appartement",
      "valeur_fonciere": 2020875.9,
      "surface_reelle_bati": 90.0,
      "nombre_pieces_principales": 4.0,
      "surface_terrain": null,
      "longitude": 5.159366,
      "latitude": 46.288465,
      "code_departement": "01",
      "code_commune": "01024",
      "nom_commune": "Attignat",
      "year": 2017,
      "price_m2": 22454.176666666666
    },
    {
      "nature_mutation": "Vente",
      "type_local": "Appartement",
      "valeur_fonciere": 71000.0,
      "surface_reelle_bati": 63.0,
      "nombre_pieces_principales": 3.0,
      "surface_terrain": null,
      "longitude": 5.219374,
      "latitude": 46.199796,
      "code_departement": "01",
      "code_commune": "01053",
      "nom_commune": "Bourg-en-Bresse",
      "year": 2017,
      "price_m2": 1126.984126984127
    },
    {
      "nature_mutation": "Vente",
      "type_local": "Maison",
      "valeur_fonciere": 155200.0,
      "surface_reelle_bati": 91.0,
      "nombre_pieces_principales": 5.0,
      "surface_terrain": 443.0,
      "longitude": 5.190835,
      "latitude": 46.122939,
      "code_departement": "01",
      "code_commune": "01211",
      "nom_commune": "Lent",
      "year": 2017,
      "price_m2": 1705.4945054945056
    },
    {
      "nature_mutation": "Vente",
      "type_local": "Maison",
      "valeur_fonciere": 122500.0,
      "surface_reelle_bati": 88.0,
      "nombre_pieces_principales": 3.0,
      "surface_terrain": 207.0,
      "longitude": 5.392619,
      "latitude": 46.176071,
      "code_departement": "01",
      "code_commune": "01447",
      "nom_commune": "Villereversure",
      "year": 2017,
      "price_m2": 1392.0454545454545
    },
    {
      "nature_mutation": "Vente",
      "type_local": "Maison",
      "valeur_fonciere": 145000.0,
      "surface_reelle_bati": 115.0,
      "nombre_pieces_principales": 4.0,
      "surface_terrain": 2769.0,
      "longitude": 5.118904,
      "latitude": 46.389691,
      "code_departement": "01",
      "code_commune": "01196",
      "nom_commune": "Jayat",
      "year": 2017,
      "price_m2": 1260.8695652173913
    },
    {
      "nature_mutation": "Vente",
      "type_local": "Maison",
      "valeur_fonciere": 180000.0,
      "surface_reelle_bati": 117.0,
      "nombre_pieces_principales": 3.0,
      "surface_terrain": 1337.0,
      "longitude": 4.840087,
      "latitude": 46.249543,
      "code_departement": "01",
      "code_commune": "01179",
      "nom_commune": "Grièges",
      "year": 2017,
      "price_m2": 1538.4615384615386
    },
    {
      "nature_mutation": "Vente",
      "type_local": "Appartement",
      "valeur_fonciere": 150455.0,
      "surface_reelle_bati": 95.0,
      "nombre_pieces_principales": 3.0,
      "surface_terrain": null,
      "longitude": 5.217714,
      "latitude": 46.200168,
      "code_departement": "01",
      "code_commune": "01053",
      "nom_commune": "Bourg-en-Bresse",
      "year": 2017,
      "price_m2": 1583.7368421052631
    },
    {
      "nature_mutation": "Vente",
      "type_local": "Appartement",
      "valeur_fonciere": 80000.0,
      "surface_reelle_bati": 91.0,
      "nombre_pieces_principales": 4.0,
      "surface_terrain": null,
      "longitude": 5.368935,
      "latitude": 46.270522,
      "code_departement": "01",
      "code_commune": "01426",
      "nom_commune": "Val-Revermont",
      "year": 2017,
      "price_m2": 879.1208791208791
    },
    {
      "nature_mutation": "Vente",
      "type_local": "Appartement",
      "valeur_fonciere": 60000.0,
      "surface_reelle_bati": 21.0,
      "nombre_pieces_principales": 1.0,
      "surface_terrain": 800.0,
      "longitude": 4.888953,
      "latitude": 46.26386,
      "code_departement": "01",
      "code_commune": "01306",
      "nom_commune": "Pont-de-Veyle",
      "year": 2017,
      "price_m2": 2857.1428571428573
    },
    {
      "nature_mutation": "Vente",
      "type_local": "Appartement",
      "valeur_fonciere": 60000.0,
      "surface_reelle_bati": 131.0,
      "nombre_pieces_principales": 6.0,
      "surface_terrain": 800.0,
      "longitude": 4.888953,
      "latitude": 46.26386,
      "code_departement": "01",
      "code_commune": "01306",
      "nom_commune": "Pont-de-Veyle",
      "year": 2017,
      "price_m2": 458.01526717557255
    },
    {
      "nature_mutation": "Vente",
      "type_local": "Appartement",
      "valeur_fonciere": 60000.0,
      "surface_reelle_bati": 46.0,
      "nombre_pieces_principales": 2.0,
      "surface_terrain": 800.0,
      "longitude": 4.888953,
      "latitude": 46.26386,
      "code_departement": "01",
      "code_commune": "01306",
      "nom_commune": "Pont-de-Veyle",
      "year": 2017,
      "price_m2": 1304.3478260869565
    },
    {
      "nature_mutation": "Vente",
      "type_local": "Maison",
      "valeur_fonciere": 60000.0,
      "surface_reelle_bati": 70.0,
      "nombre_pieces_principales": 4.0,
      "surface_terrain": 800.0,
      "longitude": 4.888953,
      "latitude": 46.26386,
      "code_departement": "01",
      "code_commune": "01306",
      "nom_commune": "Pont-de-Veyle",
      "year": 2017,
      "price_m2": 857.1428571428571
    },
    {
      "nature_mutation": "Vente",
      "type_local": "Maison",
      "valeur_fonciere": 80000.0,
      "surface_reelle_bati": 52.0,
      "nombre_pieces_principales": 3.0,
      "surface_terrain": 275.0,
      "longitude": null,
      "latitude": null,
      "code_departement": "01",
      "code_commune": "01320",
      "nom_commune": "Replonges",
      "year": 2017,
      "price_m2": 1538.4615384615386
    },
    {
      "nature_mutation": "Vente",
      "type_local": "Maison",
      "valeur_fonciere": 188800.0,
      "surface_reelle_bati": 88.0,
      "nombre_pieces_principales": 4.0,
      "surface_terrain": 984.0,
      "longitude": 4.938521,
      "latitude": 46.320246,
      "code_departement": "01",
      "code_commune": "01025",
      "nom_commune": "Bâgé-Dommartin",
      "year": 2017,
      "price_m2": 2145.4545454545455
    },
    {
      "nature_mutation": "Vente",
      "type_local": "Maison",
      "valeur_fonciere": 165700.0,
      "surface_reelle_bati": 74.0,
      "nombre_pieces_principales": 2.0,
      "surface_terrain": 468.0,
      "longitude": 5.22695,
      "latitude": 46.193918,
      "code_departement": "01",
      "code_commune": "01053",
      "nom_commune": "Bourg-en-Bresse",
      "year": 2017,
      "price_m2": 2239.189189189189
    },
    {
      "nature_mutation": "Vente",
      "type_local": "Maison",
      "valeur_fonciere": 148500.0,
      "surface_reelle_bati": 119.0,
      "nombre_pieces_principales": 4.0,
      "surface_terrain": 288.0,
      "longitude": 4.912085,
      "latitude": 46.213307,
      "code_departement": "01",
      "code_commune": "01334",
      "nom_commune": "Saint-André-d'Huiriat",
      "year": 2017,
      "price_m2": 1247.8991596638655
    },
    {
      "nature_mutation": "Vente",
      "type_local": "Appartement",
      "valeur_fonciere": 90000.0,
      "surface_reelle_bati": 57.0,
      "nombre_pieces_principales": 3.0,
      "surface_terrain": null,
      "longitude": 5.227348,
      "latitude": 46.208842,
      "code_departement": "01",
      "code_commune": "01053",
      "nom_commune": "Bourg-en-Bresse",
      "year": 2017,
      "price_m2": 1578.9473684210527
    },
    {
      "nature_mutation": "Vente",
      "type_local": "Maison",
      "valeur_fonciere": 251400.0,
      "surface_reelle_bati": 228.0,
      "nombre_pieces_principales": 7.0,
      "surface_terrain": 1000.0,
      "longitude": 5.154639,
      "latitude": 46.204362,
      "code_departement": "01",
      "code_commune": "01065",
      "nom_commune": "Buellas",
      "year": 2017,
      "price_m2": 1102.6315789473683
    },
    {
      "nature_mutation": "Vente",
      "type_local": "Maison",
      "valeur_fonciere": 251400.0,
      "surface_reelle_bati": 228.0,
      "nombre_pieces_principales": 7.0,
      "surface_terrain": 2259.0,
      "longitude": 5.154639,
      "latitude": 46.204362,
      "code_departement": "01",
      "code_commune": "01065",
      "nom_commune": "Buellas",
      "year": 2017,
      "price_m2": 1102.6315789473683
    },
    {
      "nature_mutation": "Vente",
      "type_local": "Appartement",
      "valeur_fonciere": 80000.0,
      "surface_reelle_bati": 37.0,
      "nombre_pieces_principales": 2.0,
      "surface_terrain": null,
      "longitude": 5.228277,
      "latitude": 46.207188,
      "code_departement": "01",
      "code_commune": "01053",
      "nom_commune": "Bourg-en-Bresse",
      "year": 2017,
      "price_m2": 2162.162162162162
    },
    {
      "nature_mutation": "Vente",
      "type_local": "Maison",
      "valeur_fonciere": 175000.0,
      "surface_reelle_bati": 111.0,
      "nombre_pieces_principales": 4.0,
      "surface_terrain": 426.0,
      "longitude": 5.19871,
      "latitude": 46.203221,
      "code_departement": "01",
      "code_commune": "01344",
      "nom_commune": "Saint-Denis-lès-Bourg",
      "year": 2017,
      "price_m2": 1576.5765765765766
    },
    {
      "nature_mutation": "Vente",
      "type_local": "Maison",
      "valeur_fonciere": 210870.0,
      "surface_reelle_bati": 150.0,
      "nombre_pieces_principales": 4.0,
      "surface_terrain": 1122.0,
      "longitude": 5.211541,
      "latitude": 46.069226,
      "code_departement": "01",
      "code_commune": "01145",
      "nom_commune": "Dompierre-sur-Veyle",
      "year": 2017,
      "price_m2": 1405.8
    },
    {
      "nature_mutation": "Vente",
      "type_local": "Appartement",
      "valeur_fonciere": 104000.0,
      "surface_reelle_bati": 90.0,
      "nombre_pieces_principales": 3.0,
      "surface_terrain": 348.0,
      "longitude": 5.177347,
      "latitude": 46.369787,
      "code_departement": "01",
      "code_commune": "01163",
      "nom_commune": "Foissiat",
      "year": 2017,
      "price_m2": 1155.5555555555557
    },
    {
      "nature_mutation": "Vente",
      "type_local": "Appartement",
      "valeur_fonciere": 104000.0,
      "surface_reelle_bati": 51.0,
      "nombre_pieces_principales": 2.0,
      "surface_terrain": 348.0,
      "longitude": 5.177347,
      "latitude": 46.369787,
      "code_departement": "01",
      "code_commune": "01163",
      "nom_commune": "Foissiat",
      "year": 2017,
      "price_m2": 2039.2156862745098
    },
    {
      "nature_mutation": "Vente",
      "type_local": "Maison",
      "valeur_fonciere": 120000.0,
      "surface_reelle_bati": 68.0,
      "nombre_pieces_principales": 2.0,
      "surface_terrain": 1100.0,
      "longitude": 5.043365,
      "latitude": 46.366443,
      "code_departement": "01",
      "code_commune": "01040",
      "nom_commune": "Béréziat",
      "year": 2017,
      "price_m2": 1764.7058823529412
    },
    {
      "nature_mutation": "Vente",
      "type_local": "Maison",
      "valeur_fonciere": 200000.0,
      "surface_reelle_bati": 136.0,
      "nombre_pieces_principales": 6.0,
      "surface_terrain": 662.0,
      "longitude": 5.357512,
      "latitude": 46.251847,
      "code_departement": "01",
      "code_commune": "01241",
      "nom_commune": "Meillonnas",
      "year": 2017,
      "price_m2": 1470.5882352941176
    },
    {
      "nature_mutation": "Vente",
      "type_local": "Appartement",
      "valeur_fonciere": 97200.0,
      "surface_reelle_bati": 81.0,
      "nombre_pieces_principales": 4.0,
      "surface_terrain": null,
      "longitude": 5.238277,
      "latitude": 46.213734,
      "code_departement": "01",
      "code_commune": "01053",
      "nom_commune": "Bourg-en-Bresse",
      "year": 2017,
      "price_m2": 1200.0
    },
    {
      "nature_mutation": "Vente",
      "type_local": "Maison",
      "valeur_fonciere": 259900.0,
      "surface_reelle_bati": 124.0,
      "nombre_pieces_principales": 4.0,
      "surface_terrain": 853.0,
      "longitude": 5.148477,
      "latitude": 46.157717,
      "code_departement": "01",
      "code_commune": "01336",
      "nom_commune": "Saint-André-sur-Vieux-Jonc",
      "year": 2017,
      "price_m2": 2095.967741935484
    },
    {
      "nature_mutation": "Vente",
      "type_local": "Appartement",
      "valeur_fonciere": 220000.0,
      "surface_reelle_bati": 97.0,
      "nombre_pieces_principales": 5.0,
      "surface_terrain": 702.0,
      "longitude": null,
      "latitude": null,
      "code_departement": "01",
      "code_commune": "01320",
      "nom_commune": "Replonges",
      "year": 2017,
      "price_m2": 2268.041237113402
    },
    {
      "nature_mutation": "Vente",
      "type_local": "Appartement",
      "valeur_fonciere": 220000.0,
      "surface_reelle_bati": 87.0,
      "nombre_pieces_principales": 5.0,
      "surface_terrain": 702.0,
      "longitude": null,
      "latitude": null,
      "code_departement": "01",
      "code_commune": "01320",
      "nom_commune": "Replonges",
      "year": 2017,
      "price_m2": 2528.735632183908
    },
    {
      "nature_mutation": "Vente",
      "type_local": "Appartement",
      "valeur_fonciere": 97700.0,
      "surface_reelle_bati": 69.0,
      "nombre_pieces_principales": 3.0,
      "surface_terrain": null,
      "longitude": 5.238277,
      "latitude": 46.213734,
      "code_departement": "01",
      "code_commune": "01053",
      "nom_commune": "Bourg-en-Bresse",
      "year": 2017,
      "price_m2": 1415.9420289855072
    },
    {
      "nature_mutation": "Vente",
      "type_local": "Appartement",
      "valeur_fonciere": 85500.0,
      "surface_reelle_bati": 62.0,
      "nombre_pieces_principales": 2.0,
      "surface_terrain": null,
      "longitude": 5.227257,
      "latitude": 46.199522,
      "code_departement": "01",
      "code_commune": "01053",
      "nom_commune": "Bourg-en-Bresse",
      "year": 2017,
      "price_m2": 1379.032258064516
    },
    {
      "nature_mutation": "Vente",
      "type_local": "Appartement",
      "valeur_fonciere": 37300.0,
      "surface_reelle_bati": 21.0,
      "nombre_pieces_principales": 1.0,
      "surface_terrain": null,
      "longitude": 5.228277,
      "latitude": 46.207188,
      "code_departement": "01",
      "code_commune": "01053",
      "nom_commune": "Bourg-en-Bresse",
      "year": 2017,
      "price_m2": 1776.1904761904761
    },
    {
      "nature_mutation": "Vente",
      "type_local": "Maison",
      "valeur_fonciere": 211000.0,
      "surface_reelle_bati": 90.0,
      "nombre_pieces_principales": 5.0,
      "surface_terrain": 1009.0,
      "longitude": 5.220355,
      "latitude": 46.248168,
      "code_departement": "01",
      "code_commune": "01451",
      "nom_commune": "Viriat",
      "year": 2017,
      "price_m2": 2344.4444444444443
    },
    {
      "nature_mutation": "Vente",
      "type_local": "Maison",
      "valeur_fonciere": 211000.0,
      "surface_reelle_bati": 90.0,
      "nombre_pieces_principales": 5.0,
      "surface_terrain": 581.0,
      "longitude": 5.220355,
      "latitude": 46.248168,
      "code_departement": "01",
      "code_commune": "01451",
      "nom_commune": "Viriat",
      "year": 2017,
      "price_m2": 2344.4444444444443
    },
    {
      "nature_mutation": "Vente",
      "type_local": "Appartement",
      "valeur_fonciere": 94000.0,
      "surface_reelle_bati": 71.0,
      "nombre_pieces_principales": 3.0,
      "surface_terrain": null,
      "longitude": 5.266068,
      "latitude": 46.144559,
      "code_departement": "01",
      "code_commune": "01069",
      "nom_commune": "Certines",
      "year": 2017,
      "price_m2": 1323.943661971831
    },
    {
      "nature_mutation": "Vente",
      "type_local": "Maison",
      "valeur_fonciere": 130000.0,
      "surface_reelle_bati": 89.0,
      "nombre_pieces_principales": 5.0,
      "surface_terrain": 301.0,
      "longitude": 5.221604,
      "latitude": 46.191634,
      "code_departement": "01",
      "code_commune": "01289",
      "nom_commune": "Péronnas",
      "year": 2017,
      "price_m2": 1460.6741573033707
    },
    {
      "nature_mutation": "Vente",
      "type_local": "Maison",
      "valeur_fonciere": 90000.0,
      "surface_reelle_bati": 160.0,
      "nombre_pieces_principales": 5.0,
      "surface_terrain": 770.0,
      "longitude": 5.263754,
      "latitude": 46.174204,
      "code_departement": "01",
      "code_commune": "01254",
      "nom_commune": "Montagnat",
      "year": 2017,
      "price_m2": 562.5
    },
    {
      "nature_mutation": "Vente",
      "type_local": "Maison",
      "valeur_fonciere": 90000.0,
      "surface_reelle_bati": 160.0,
      "nombre_pieces_principales": 5.0,
      "surface_terrain": 500.0,
      "longitude": 5.263754,
      "latitude": 46.174204,
      "code_departement": "01",
      "code_commune": "01254",
      "nom_commune": "Montagnat",
      "year": 2017,
      "price_m2": 562.5
    },
    {
      "nature_mutation": "Vente",
      "type_local": "Maison",
      "valeur_fonciere": 55000.0,
      "surface_reelle_bati": 107.0,
      "nombre_pieces_principales": 2.0,
      "surface_terrain": 3491.0,
      "longitude": 5.237364,
      "latitude": 46.424651,
      "code_departement": "01",
      "code_commune": "01124",
      "nom_commune": "Cormoz",
      "year": 2017,
      "price_m2": 514.018691588785
    },
    {
      "nature_mutation": "Vente",
      "type_local": "Maison",
      "valeur_fonciere": 55000.0,
      "surface_reelle_bati": 107.0,
      "nombre_pieces_principales": 2.0,
      "surface_terrain": 3908.0,
      "longitude": 5.237364,
      "latitude": 46.424651,
      "code_departement": "01",
      "code_commune": "01124",
      "nom_commune": "Cormoz",
      "year": 2017,
      "price_m2": 514.018691588785
    },
    {
      "nature_mutation": "Vente",
      "type_local": "Maison",
      "valeur_fonciere": 198000.0,
      "surface_reelle_bati": 158.0,
      "nombre_pieces_principales": 4.0,
      "surface_terrain": 875.0,
      "longitude": 5.317819,
      "latitude": 46.055979,
      "code_departement": "01",
      "code_commune": "01151",
      "nom_commune": "Druillat",
      "year": 2017,
      "price_m2": 1253.1645569620252
    },
    {
      "nature_mutation": "Vente",
      "type_local": "Maison",
      "valeur_fonciere": 198000.0,
      "surface_reelle_bati": 158.0,
      "nombre_pieces_principales": 4.0,
      "surface_terrain": 857.0,
      "longitude": 5.317819,
      "latitude": 46.055979,
      "code_departement": "01",
      "code_commune": "01151",
      "nom_commune": "Druillat",
      "year": 2017,
      "price_m2": 1253.1645569620252
    },
    {
      "nature_mutation": "Vente",
      "type_local": "Maison",
      "valeur_fonciere": 113400.0,
      "surface_reelle_bati": 80.0,
      "nombre_pieces_principales": 4.0,
      "surface_terrain": null,
      "longitude": 5.287966,
      "latitude": 46.004103,
      "code_departement": "01",
      "code_commune": "01314",
      "nom_commune": "Priay",
      "year": 2017,
      "price_m2": 1417.5
    },
    {
      "nature_mutation": "Vente",
      "type_local": "Appartement",
      "valeur_fonciere": 100000.0,
      "surface_reelle_bati": 77.0,
      "nombre_pieces_principales": 3.0,
      "surface_terrain": null,
      "longitude": 5.226227,
      "latitude": 46.206095,
      "code_departement": "01",
      "code_commune": "01053",
      "nom_commune": "Bourg-en-Bresse",
      "year": 2017,
      "price_m2": 1298.7012987012988
    },
    {
      "nature_mutation": "Vente",
      "type_local": "Appartement",
      "valeur_fonciere": 100000.0,
      "surface_reelle_bati": 22.0,
      "nombre_pieces_principales": 1.0,
      "surface_terrain": null,
      "longitude": 5.226227,
      "latitude": 46.206095,
      "code_departement": "01",
      "code_commune": "01053",
      "nom_commune": "Bourg-en-Bresse",
      "year": 2017,
      "price_m2": 4545.454545454545
    },
    {
      "nature_mutation": "Vente",
      "type_local": "Appartement",
      "valeur_fonciere": 100000.0,
      "surface_reelle_bati": 28.0,
      "nombre_pieces_principales": 1.0,
      "surface_terrain": null,
      "longitude": 5.226227,
      "latitude": 46.206095,
      "code_departement": "01",
      "code_commune": "01053",
      "nom_commune": "Bourg-en-Bresse",
      "year": 2017,
      "price_m2": 3571.4285714285716
    },
    {
      "nature_mutation": "Vente",
      "type_local": "Appartement",
      "valeur_fonciere": 100000.0,
      "surface_reelle_bati": 53.0,
      "nombre_pieces_principales": 1.0,
      "surface_terrain": null,
      "longitude": 5.226227,
      "latitude": 46.206095,
      "code_departement": "01",
      "code_commune": "01053",
      "nom_commune": "Bourg-en-Bresse",
      "year": 2017,
      "price_m2": 1886.7924528301887
    },
    {
      "nature_mutation": "Vente",
      "type_local": "Appartement",
      "valeur_fonciere": 100000.0,
      "surface_reelle_bati": 28.0,
      "nombre_pieces_principales": 1.0,
      "surface_terrain": null,
      "longitude": 5.226227,
      "latitude": 46.206095,
      "code_departement": "01",
      "code_commune": "01053",
      "nom_commune": "Bourg-en-Bresse",
      "year": 2017,
      "price_m2": 3571.4285714285716
    },
    {
      "nature_mutation": "Vente",
      "type_local": "Appartement",
      "valeur_fonciere": 100000.0,
      "surface_reelle_bati": 53.0,
      "nombre_pieces_principales": 2.0,
      "surface_terrain": null,
      "longitude": 5.226227,
      "latitude": 46.206095,
      "code_departement": "01",
      "code_commune": "01053",
      "nom_commune": "Bourg-en-Bresse",
      "year": 2017,
      "price_m2": 1886.7924528301887
    },
    {
      "nature_mutation": "Vente",
      "type_local": "Maison",
      "valeur_fonciere": 285000.0,
      "surface_reelle_bati": 143.0,
      "nombre_pieces_principales": 6.0,
      "surface_terrain": 644.0,
      "longitude": 5.21194,
      "latitude": 46.212941,
      "code_departement": "01",
      "code_commune": "01451",
      "nom_commune": "Viriat",
      "year": 2017,
      "price_m2": 1993.006993006993
    },
    {
      "nature_mutation": "Vente",
      "type_local": "Appartement",
      "valeur_fonciere": 125000.0,
      "surface_reelle_bati": 89.0,
      "nombre_pieces_principales": 4.0,
      "surface_terrain": null,
      "longitude": 4.886675,
      "latitude": 46.260757,
      "code_departement": "01",
      "code_commune": "01306",
      "nom_commune": "Pont-de-Veyle",
      "year": 2017,
      "price_m2": 1404.4943820224719
    },
    {
      "nature_mutation": "Vente",
      "type_local": "Maison",
      "valeur_fonciere": 371250.0,
      "surface_reelle_bati": 46.0,
      "nombre_pieces_principales": 1.0,
      "surface_terrain": 1702.0,
      "longitude": 4.899883,
      "latitude": 46.266061,
      "code_departement": "01",
      "code_commune": "01365",
      "nom_commune": "Saint-Jean-sur-Veyle",
      "year": 2017,
      "price_m2": 8070.652173913043
    },
    {
      "nature_mutation": "Vente",
      "type_local": "Maison",
      "valeur_fonciere": 371250.0,
      "surface_reelle_bati": 256.0,
      "nombre_pieces_principales": 8.0,
      "surface_terrain": 827.0,
      "longitude": 4.899949,
      "latitude": 46.265551,
      "code_departement": "01",
      "code_commune": "01365",
      "nom_commune": "Saint-Jean-sur-Veyle",
      "year": 2017,
      "price_m2": 1450.1953125
    },
    {
      "nature_mutation": "Vente",
      "type_local": "Maison",
      "valeur_fonciere": 371250.0,
      "surface_reelle_bati": 256.0,
      "nombre_pieces_principales": 8.0,
      "surface_terrain": 386.0,
      "longitude": 4.899949,
      "latitude": 46.265551,
      "code_departement": "01",
      "code_commune": "01365",
      "nom_commune": "Saint-Jean-sur-Veyle",
      "year": 2017,
      "price_m2": 1450.1953125
    },
    {
      "nature_mutation": "Vente",
      "type_local": "Maison",
      "valeur_fonciere": 75000.0,
      "surface_reelle_bati": 96.0,
      "nombre_pieces_principales": 3.0,
      "surface_terrain": 613.0,
      "longitude": 4.973917,
      "latitude": 46.434048,
      "code_departement": "01",
      "code_commune": "01337",
      "nom_commune": "Saint-Bénigne",
      "year": 2017,
      "price_m2": 781.25
    },
    {
      "nature_mutation": "Vente",
      "type_local": "Maison",
      "valeur_fonciere": 229850.0,
      "surface_reelle_bati": 110.0,
      "nombre_pieces_principales": 4.0,
      "surface_terrain": 127.0,
      "longitude": 5.328231,
      "latitude": 46.078328,
      "code_departement": "01",
      "code_commune": "01151",
      "nom_commune": "Druillat",
      "year": 2017,
      "price_m2": 2089.5454545454545
    },
    {
      "nature_mutation": "Vente",
      "type_local": "Appartement",
      "valeur_fonciere": 363000.0,
      "surface_reelle_bati": 75.0,
      "nombre_pieces_principales": 4.0,
      "surface_terrain": 790.0,
      "longitude": 5.203588,
      "latitude": 46.201487,
      "code_departement": "01",
      "code_commune": "01344",
      "nom_commune": "Saint-Denis-lès-Bourg",
      "year": 2017,
      "price_m2": 4840.0
    },