{
  "dataset_id": "dvf",
  "source_file_location": "data/raw/dvf/year=2016/2016-full.csv.zip",
  "rows": 966136,
  "columns_count": 13,
  "available_years": [
    2014,
    2015,
    2016,
    2017,
    2018,
    2019,
    2020,
    2021,
    2022,
    2023,
    2024
  ],
  "last_update": null,
  "columns": [
    {
      "key": "nature_mutation",
      "label": "nature mutation",
      "type": "text"
    },
    {
      "key": "type_local",
      "label": "type local",
      "type": "text"
    },
    {
      "key": "valeur_fonciere",
      "label": "valeur fonciere",
      "type": "number"
    },
    {
      "key": "surface_reelle_bati",
      "label": "surface reelle bati",
      "type": "number"
    },
    {
      "key": "nombre_pieces_principales",
      "label": "nombre pieces principales",
      "type": "number"
    },
    {
      "key": "surface_terrain",
      "label": "surface terrain",
      "type": "number"
    },
    {
      "key": "longitude",
      "label": "longitude",
      "type": "number"
    },
    {
      "key": "latitude",
      "label": "latitude",
      "type": "number"
    },
    {
      "key": "code_departement",
      "label": "code departement",
      "type": "text"
    },
    {
      "key": "code_commune",
      "label": "code commune",
      "type": "text"
    },
    {
      "key": "nom_commune",
      "label": "nom commune",
      "type": "text"
    },
    {
      "key": "year",
      "label": "year",
      "type": "number"
    },
    {
      "key": "price_m2",
      "label": "price m2",
      "type": "number"
    }
  ],
  "records": [
    {
      "nature_mutation": "Vente",
      "type_local": "Appartement",
      "valeur_fonciere": 40000.0,
      "surface_reelle_bati": 50.0,
      "nombre_pieces_principales": 2.0,
      "surface_terrain": null,
      "longitude": 4.8406,
      "latitude": 46.304486,
      "code_departement": "01",
      "code_commune": "01370",
      "nom_commune": "Saint-Laurent-sur-Saône",
      "year": 2016,
      "price_m2": 800.0
    },
    {
      "nature_mutation": "Vente",
      "type_local": "Maison",
      "valeur_fonciere": 90000.0,
      "surface_reelle_bati": 150.0,
      "nombre_pieces_principales": 6.0,
      "surface_terrain": 1220.0,
      "longitude": 5.059037,
      "latitude": 46.386693,
      "code_departement": "01",
      "code_commune": "01364",
      "nom_commune": "Saint-Jean-sur-Reyssouze",
      "year": 2016,
      "price_m2": 600.0
    },
    {
      "nature_mutation": "Vente",
      "type_local": "Maison",
      "valeur_fonciere": 203700.0,
      "surface_reelle_bati": 98.0,
      "nombre_pieces_principales": 4.0,
      "surface_terrain": 500.0,
      "longitude": 4.996696,
      "latitude": 46.383457,
      "code_departement": "01",
      "code_commune": "01050",
      "nom_commune": "Boissey",
      "year": 2016,
      "price_m2": 2078.5714285714284
    },
    {
      "nature_mutation": "Vente",
      "type_local": "Maison",
      "valeur_fonciere": 203700.0,
      "surface_reelle_bati": 98.0,
      "nombre_pieces_principales": 4.0,
      "surface_terrain": 750.0,
      "longitude": 4.996696,
      "latitude": 46.383457,
      "code_departement": "01",
      "code_commune": "01050",
      "nom_commune": "Boissey",
      "year": 2016,
      "price_m2": 2078.5714285714284
    },
    {
      "nature_mutation": "Vente",
      "type_local": "Maison",
      "valeur_fonciere": 147000.0,
      "surface_reelle_bati": 70.0,
      "nombre_pieces_principales": 2.0,
      "surface_terrain": 464.0,
      "longitude": 5.16188,
      "latitude": 46.290692,
      "code_departement": "01",
      "code_commune": "01024",
      "nom_commune": "Attignat",
      "year": 2016,
      "price_m2": 2100.0
    },
    {
      "nature_mutation": "Vente",
      "type_local": "Maison",
      "valeur_fonciere": 95000.0,
      "surface_reelle_bati": 91.0,
      "nombre_pieces_principales": 2.0,
      "surface_terrain": 921.0,
      "longitude": 5.156348,
      "latitude": 46.309766,
      "code_departement": "01",
      "code_commune": "01130",
      "nom_commune": "Bresse Vallons",
      "year": 2016,
      "price_m2": 1043.956043956044
    },
    {
      "nature_mutation": "Vente",
      "type_local": "Maison",
      "valeur_fonciere": 273150.0,
      "surface_reelle_bati": 113.0,
      "nombre_pieces_principales": 4.0,
      "surface_terrain": 1125.0,
      "longitude": 5.181416,
      "latitude": 46.370978,
      "code_departement": "01",
      "code_commune": "01163",
      "nom_commune": "Foissiat",
      "year": 2016,
      "price_m2": 2417.2566371681414
    },
    {
      "nature_mutation": "Vente",
      "type_local": "Maison",
      "valeur_fonciere": 75000.0,
      "surface_reelle_bati": 120.0,
      "nombre_pieces_principales": 3.0,
      "surface_terrain": 50.0,
      "longitude": 5.351732,
      "latitude": 46.244744,
      "code_departement": "01",
      "code_commune": "01241",
      "nom_commune": "Meillonnas",
      "year": 2016,
      "price_m2": 625.0
    },
    {
      "nature_mutation": "Vente",
      "type_local": "Maison",
      "valeur_fonciere": 238500.0,
      "surface_reelle_bati": 126.0,
      "nombre_pieces_principales": 4.0,
      "surface_terrain": 1003.0,
      "longitude": 5.369267,
      "latitude": 46.064102,
      "code_departement": "01",
      "code_commune": "01273",
      "nom_commune": "Neuville-sur-Ain",
      "year": 2016,
      "price_m2": 1892.857142857143
    },
    {
      "nature_mutation": "Vente",
      "type_local": "Maison",
      "valeur_fonciere": 240000.0,
      "surface_reelle_bati": 126.0,
      "nombre_pieces_principales": 5.0,
      "surface_terrain": 1912.0,
      "longitude": 4.978991,
      "latitude": 46.245893,
      "code_departement": "01",
      "code_commune": "01291",
      "nom_commune": "Perrex",
      "year": 2016,
      "price_m2": 1904.7619047619048
    },
    {
      "nature_mutation": "Vente",
      "type_local": "Maison",
      "valeur_fonciere": 138000.0,
      "surface_reelle_bati": 103.0,
      "nombre_pieces_principales": 4.0,
      "surface_terrain": 148.0,
      "longitude": 4.894313,
      "latitude": 46.328238,
      "code_departement": "01",
      "code_commune": "01159",
      "nom_commune": "Feillens",
      "year": 2016,
      "price_m2": 1339.8058252427184
    },
    {
      "nature_mutation": "Vente",
      "type_local": "Maison",
      "valeur_fonciere": 200600.0,
      "surface_reelle_bati": 94.0,
      "nombre_pieces_principales": 5.0,
      "surface_terrain": 598.0,
      "longitude": 5.131806,
      "latitude": 46.246572,
      "code_departement": "01",
      "code_commune": "01301",
      "nom_commune": "Polliat",
      "year": 2016,
      "price_m2": 2134.0425531914893
    },
    {
      "nature_mutation": "Vente",
      "type_local": "Appartement",
      "valeur_fonciere": 100000.0,
      "surface_reelle_bati": 206.0,
      "nombre_pieces_principales": 0.0,
      "surface_terrain": null,
      "longitude": 5.128283,
      "latitude": 46.337175,
      "code_departement": "01",
      "code_commune": "01266",
      "nom_commune": "Montrevel-en-Bresse",
      "year": 2016,
      "price_m2": 485.43689320388347
    },
    {
      "nature_mutation": "Vente",
      "type_local": "Appartement",
      "valeur_fonciere": 120000.0,
      "surface_reelle_bati": 86.0,
      "nombre_pieces_principales": 5.0,
      "surface_terrain": null,
      "longitude": 5.238636,
      "latitude": 46.192321,
      "code_departement": "01",
      "code_commune": "01053",
      "nom_commune": "Bourg-en-Bresse",
      "year": 2016,
      "price_m2": 1395.3488372093022
    },
    {
      "nature_mutation": "Vente",
      "type_local": "Maison",
      "valeur_fonciere": 90000.0,
      "surface_reelle_bati": 98.0,
      "nombre_pieces_principales": 3.0,
      "surface_terrain": 249.0,
      "longitude": 5.328875,
      "latitude": 46.10919,
      "code_departement": "01",
      "code_commune": "01374",
      "nom_commune": "Saint-Martin-du-Mont",
      "year": 2016,
      "price_m2": 918.3673469387755
    },
    {
      "nature_mutation": "Vente",
      "type_local": "Maison",
      "valeur_fonciere": 145000.0,
      "surface_reelle_bati": 94.0,
      "nombre_pieces_principales": 5.0,
      "surface_terrain": 1040.0,
      "longitude": 5.113219,
      "latitude": 46.393552,
      "code_departement": "01",
      "code_commune": "01196",
      "nom_commune": "Jayat",
      "year": 2016,
      "price_m2": 1542.5531914893618
    },
    {
      "nature_mutation": "Vente",
      "type_local": "Maison",
      "valeur_fonciere": 150000.0,
      "surface_reelle_bati": 89.0,
      "nombre_pieces_principales": 4.0,
      "surface_terrain": null,
      "longitude": 5.236822,
      "latitude": 46.189804,
      "code_departement": "01",
      "code_commune": "01053",
      "nom_commune": "Bourg-en-Bresse",
      "year": 2016,
      "price_m2": 1685.3932584269662
    },
    {
      "nature_mutation": "Vente",
      "type_local": "Appartement",
      "valeur_fonciere": 66500.0,
      "surface_reelle_bati": 44.0,
      "nombre_pieces_principales": 2.0,
      "surface_terrain": null,
      "longitude": 5.224788,
      "latitude": 46.210286,
      "code_departement": "01",
      "code_commune": "01053",
      "nom_commune": "Bourg-en-Bresse",
      "year": 2016,
      "price_m2": 1511.3636363636363
    },
    {
      "nature_mutation": "Vente",
      "type_local": "Appartement",
      "valeur_fonciere": 66500.0,
      "surface_reelle_bati": 64.0,
      "nombre_pieces_principales": 3.0,
      "surface_terrain": null,
      "longitude": 5.224788,
      "latitude": 46.210286,
      "code_departement": "01",
      "code_commune": "01053",
      "nom_commune": "Bourg-en-Bresse",
      "year": 2016,
      "price_m2": 1039.0625
    },
    {
      "nature_mutation": "Vente",
      "type_local": "Appartement",
      "valeur_fonciere": 109500.0,
      "surface_reelle_bati": 20.0,
      "nombre_pieces_principales": 1.0,
      "surface_terrain": null,
      "longitude": 5.209562,
      "latitude": 46.19884,
      "code_departement": "01",
      "code_commune": "01053",
      "nom_commune": "Bourg-en-Bresse",
      "year": 2016,
      "price_m2": 5475.0
    },
    {
      "nature_mutation": "Vente",
      "type_local": "Appartement",
      "valeur_fonciere": 109500.0,
      "surface_reelle_bati": 20.0,
      "nombre_pieces_principales": 1.0,
      "surface_terrain": null,
      "longitude": 5.209562,
      "latitude": 46.19884,
      "code_departement": "01",
      "code_commune": "01053",
      "nom_commune": "Bourg-en-Bresse",
      "year": 2016,
      "price_m2": 5475.0
    },
    {
      "nature_mutation": "Vente",
      "type_local": "Appartement",
      "valeur_fonciere": 109500.0,
      "surface_reelle_bati": 20.0,
      "nombre_pieces_principales": 1.0,
      "surface_terrain": null,
      "longitude": 5.209562,
      "latitude": 46.19884,
      "code_departement": "01",
      "code_commune": "01053",
      "nom_commune": "Bourg-en-Bresse",
      "year": 2016,
      "price_m2": 5475.0
    },
    {
      "nature_mutation": "Vente",
      "type_local": "Maison",
      "valeur_fonciere": 132660.0,
      "surface_reelle_bati": 70.0,
      "nombre_pieces_principales": 3.0,
      "surface_terrain": 60.0,
      "longitude": 5.256774,
      "latitude": 46.211377,
      "code_departement": "01",
      "code_commune": "01053",
      "nom_commune": "Bourg-en-Bresse",
      "year": 2016,
      "price_m2": 1895.142857142857
    },
    {
      "nature_mutation": "Vente",
      "type_local": "Appartement",
      "valeur_fonciere": 140000.0,
      "surface_reelle_bati": 114.0,
      "nombre_pieces_principales": 4.0,
      "surface_terrain": null,
      "longitude": 5.223389,
      "latitude": 46.208938,
      "code_departement": "01",
      "code_commune": "01053",
      "nom_commune": "Bourg-en-Bresse",
      "year": 2016,
      "price_m2": 1228.0701754385964
    },
    {
      "nature_mutation": "Vente",
      "type_local": "Appartement",
      "valeur_fonciere": 94800.0,
      "surface_reelle_bati": 79.0,
      "nombre_pieces_principales": 4.0,
      "surface_terrain": null,
      "longitude": 5.238277,
      "latitude": 46.213734,
      "code_departement": "01",
      "code_commune": "01053",
      "nom_commune": "Bourg-en-Bresse",
      "year": 2016,
      "price_m2": 1200.0
    },
    {
      "nature_mutation": "Vente",
      "type_local": "Maison",
      "valeur_fonciere": 123500.0,
      "surface_reelle_bati": 65.0,
      "nombre_pieces_principales": 2.0,
      "surface_terrain": 36.0,
      "longitude": 5.372159,
      "latitude": 46.082624,
      "code_departement": "01",
      "code_commune": "01273",
      "nom_commune": "Neuville-sur-Ain",
      "year": 2016,
      "price_m2": 1900.0
    },
    {
      "nature_mutation": "Vente",
      "type_local": "Maison",
      "valeur_fonciere": 800000.0,
      "surface_reelle_bati": 59.0,
      "nombre_pieces_principales": 2.0,
      "surface_terrain": 3196.0,
      "longitude": null,
      "latitude": null,
      "code_departement": "01",
      "code_commune": "01320",
      "nom_commune": "Replonges",
      "year": 2016,
      "price_m2": 13559.322033898305
    },
    {
      "nature_mutation": "Vente",
      "type_local": "Maison",
      "valeur_fonciere": 160100.0,
      "surface_reelle_bati": 103.0,
      "nombre_pieces_principales": 4.0,
      "surface_terrain": 1018.0,
      "longitude": 5.406889,
      "latitude": 46.199868,
      "code_departement": "01",
      "code_commune": "01447",
      "nom_commune": "Villereversure",
      "year": 2016,
      "price_m2": 1554.368932038835
    },
    {
      "nature_mutation": "Vente",
      "type_local": "Maison",
      "valeur_fonciere": 160100.0,
      "surface_reelle_bati": 103.0,
      "nombre_pieces_principales": 4.0,
      "surface_terrain": 1230.0,
      "longitude": 5.406889,
      "latitude": 46.199868,
      "code_departement": "01",
      "code_commune": "01447",
      "nom_commune": "Villereversure",
      "year": 2016,
      "price_m2": 1554.368932038835
    },
    {
      "nature_mutation": "Vente",
      "type_local": "Maison",
      "valeur_fonciere": 200000.0,
      "surface_reelle_bati": 137.0,
      "nombre_pieces_principales": 7.0,
      "surface_terrain": 705.0,
      "longitude": 5.330372,
      "latitude": 46.183832,
      "code_departement": "01",
      "code_commune": "01072",
      "nom_commune": "Ceyzériat",
      "year": 2016,
      "price_m2": 1459.85401459854
    },
    {
      "nature_mutation": "Vente",
      "type_local": "Appartement",
      "valeur_fonciere": 373000.0,
      "surface_reelle_bati": 85.0,
      "nombre_pieces_principales": 4.0,
      "surface_terrain": 217.0,
      "longitude": 5.213603,
      "latitude": 46.202414,
      "code_departement": "01",
      "code_commune": "01053",
      "nom_commune": "Bourg-en-Bresse",
      "year": 2016,
      "price_m2": 4388.235294117647
    },
    {
      "nature_mutation": "Vente",
      "type_local": "Appartement",
      "valeur_fonciere": 373000.0,
      "surface_reelle_bati": 45.0,
      "nombre_pieces_principales": 1.0,
      "surface_terrain": 217.0,
      "longitude": 5.213603,
      "latitude": 46.202414,
      "code_departement": "01",
      "code_commune": "01053",
      "nom_commune": "Bourg-en-Bresse",
      "year": 2016,
      "price_m2": 8288.888888888889
    },
    {
      "nature_mutation": "Vente",
      "type_local": "Appartement",
      "valeur_fonciere": 373000.0,
      "surface_reelle_bati": 65.0,
      "nombre_pieces_principales": 3.0,
      "surface_terrain": 217.0,
      "longitude": 5.213603,
      "latitude": 46.202414,
      "code_departement": "01",
      "code_commune": "01053",
      "nom_commune": "Bourg-en-Bresse",
      "year": 2016,
      "price_m2": 5738.461538461538
    },
    {
      "nature_mutation": "Vente",
      "type_local": "Appartement",
      "valeur_fonciere": 373000.0,
      "surface_reelle_bati": 68.0,
      "nombre_pieces_principales": 3.0,
      "surface_terrain": 217.0,
      "longitude": 5.213603,
      "latitude": 46.202414,
      "code_departement": "01",
      "code_commune": "01053",
      "nom_commune": "Bourg-en-Bresse",
      "year": 2016,
      "price_m2": 5485.294117647059
    },
    {
      "nature_mutation": "Vente",
      "type_local": "Maison",
      "valeur_fonciere": 66500.0,
      "surface_reelle_bati": 56.0,
      "nombre_pieces_principales": 2.0,
      "surface_terrain": 56.0,
      "longitude": 5.195474,
      "latitude": 46.119472,
      "code_departement": "01",
      "code_commune": "01211",
      "nom_commune": "Lent",
      "year": 2016,
      "price_m2": 1187.5
    },
    {
      "nature_mutation": "Vente",
      "type_local": "Appartement",
      "valeur_fonciere": 65000.0,
      "surface_reelle_bati": 55.0,
      "nombre_pieces_principales": 2.0,
      "surface_terrain": null,
      "longitude": 4.839873,
      "latitude": 46.30487,
      "code_departement": "01",
      "code_commune": "01370",
      "nom_commune": "Saint-Laurent-sur-Saône",
      "year": 2016,
      "price_m2": 1181.8181818181818
    },
    {
      "nature_mutation": "Vente",
      "type_local": "Maison",
      "valeur_fonciere": 74000.0,
      "surface_reelle_bati": 89.0,
      "nombre_pieces_principales": 4.0,
      "surface_terrain": 1545.0,
      "longitude": 4.949253,
      "latitude": 46.429287,
      "code_departement": "01",
      "code_commune": "01305",
      "nom_commune": "Pont-de-Vaux",
      "year": 2016,
      "price_m2": 831.4606741573034
    },
    {
      "nature_mutation": "Vente",
      "type_local": "Maison",
      "valeur_fonciere": 205000.0,
      "surface_reelle_bati": 130.0,
      "nombre_pieces_principales": 4.0,
      "surface_terrain": 2640.0,
      "longitude": 5.195884,
      "latitude": 46.374403,
      "code_departement": "01",
      "code_commune": "01163",
      "nom_commune": "Foissiat",
      "year": 2016,
      "price_m2": 1576.923076923077
    },
    {
      "nature_mutation": "Vente",
      "type_local": "Maison",
      "valeur_fonciere": 169500.0,
      "surface_reelle_bati": 103.0,
      "nombre_pieces_principales": 5.0,
      "surface_terrain": 768.0,
      "longitude": 5.195213,
      "latitude": 46.196787,
      "code_departement": "01",
      "code_commune": "01344",
      "nom_commune": "Saint-Denis-lès-Bourg",
      "year": 2016,
      "price_m2": 1645.631067961165
    },
    {
      "nature_mutation": "Vente",
      "type_local": "Appartement",
      "valeur_fonciere": 78114.0,
      "surface_reelle_bati": 64.0,
      "nombre_pieces_principales": 3.0,
      "surface_terrain": null,
      "longitude": 5.214822,
      "latitude": 46.204026,
      "code_departement": "01",
      "code_commune": "01053",
      "nom_commune": "Bourg-en-Bresse",
      "year": 2016,
      "price_m2": 1220.53125
    },
    {
      "nature_mutation": "Vente",
      "type_local": "Maison",
      "valeur_fonciere": 165400.0,
      "surface_reelle_bati": 82.0,
      "nombre_pieces_principales": 4.0,
      "surface_terrain": 554.0,
      "longitude": null,
      "latitude": null,
      "code_departement": "01",
      "code_commune": "01320",
      "nom_commune": "Replonges",
      "year": 2016,
      "price_m2": 2017.0731707317073
    },
    {
      "nature_mutation": "Vente",
      "type_local": "Appartement",
      "valeur_fonciere": 215000.0,
      "surface_reelle_bati": 137.0,
      "nombre_pieces_principales": 3.0,
      "surface_terrain": 265.0,
      "longitude": 5.37122,
      "latitude": 46.082031,
      "code_departement": "01",
      "code_commune": "01273",
      "nom_commune": "Neuville-sur-Ain",
      "year": 2016,
      "price_m2": 1569.3430656934306
    },
    {
      "nature_mutation": "Vente",
      "type_local": "Appartement",
      "valeur_fonciere": 215000.0,
      "surface_reelle_bati": 16.0,
      "nombre_pieces_principales": 1.0,
      "surface_terrain": 265.0,
      "longitude": 5.37122,
      "latitude": 46.082031,
      "code_departement": "01",
      "code_commune": "01273",
      "nom_commune": "Neuville-sur-Ain",
      "year": 2016,
      "price_m2": 13437.5
    },
    {
      "nature_mutation": "Vente",
      "type_local": "Appartement",
      "valeur_fonciere": 215000.0,
      "surface_reelle_bati": 138.0,
      "nombre_pieces_principales": 2.0,
      "surface_terrain": 265.0,
      "longitude": 5.37122,
      "latitude": 46.082031,
      "code_departement": "01",
      "code_commune": "01273",
      "nom_commune": "Neuville-sur-Ain",
      "year": 2016,
      "price_m2": 1557.9710144927535
    },
    {
      "nature_mutation": "Vente",
      "type_local": "Appartement",
      "valeur_fonciere": 215000.0,
      "surface_reelle_bati": 57.0,
      "nombre_pieces_principales": 3.0,
      "surface_terrain": 265.0,
      "longitude": 5.37122,
      "latitude": 46.082031,
      "code_departement": "01",
      "code_commune": "01273",
      "nom_commune": "Neuville-sur-Ain",
      "year": 2016,
      "price_m2": 3771.9298245614036
    },
    {
      "nature_mutation": "Vente",
      "type_local": "Maison",
      "valeur_fonciere": 247000.0,
      "surface_reelle_bati": 143.0,
      "nombre_pieces_principales": 6.0,
      "surface_terrain": 570.0,
      "longitude": 5.281011,
      "latitude": 46.290214,
      "code_departement": "01",
      "code_commune": "01350",
      "nom_commune": "Saint-Étienne-du-Bois",
      "year": 2016,
      "price_m2": 1727.2727272727273
    },
    {
      "nature_mutation": "Vente",
      "type_local": "Maison",
      "valeur_fonciere": 60000.0,
      "surface_reelle_bati": 63.0,
      "nombre_pieces_principales": 2.0,
      "surface_terrain": 230.0,
      "longitude": 5.333499,
      "latitude": 46.144489,
      "code_departement": "01",
      "code_commune": "01197",
      "nom_commune": "Journans",
      "year": 2016,
      "price_m2": 952.3809523809524
    },
    {
      "nature_mutation": "Vente",
      "type_local": "Maison",
      "valeur_fonciere": 35853.0,
      "surface_reelle_bati": 78.0,
      "nombre_pieces_principales": 2.0,
      "surface_terrain": 13774.0,
      "longitude": 5.340771,
      "latitude": 46.309136,
      "code_departement": "01",
      "code_commune": "01426",
      "nom_commune": "Val-Revermont",
      "year": 2016,
      "price_m2": 459.65384615384613
    },
    {
      "nature_mutation": "Vente",
      "type_local": "Maison",
      "valeur_fonciere": 35853.0,
      "surface_reelle_bati": 78.0,
      "nombre_pieces_principales": 2.0,
      "surface_terrain": 2080.0,
      "longitude": 5.340771,
      "latitude": 46.309136,
      "code_departement": "01",
      "code_commune": "01426",
      "nom_commune": "Val-Revermont",
      "year": 2016,
      "price_m2": 459.65384615384613
    },
    {
      "nature_mutation": "Vente",
      "type_local": "Maison",
      "valeur_fonciere": 35853.0,
      "surface_reelle_bati": 78.0,
      "nombre_pieces_principales": 2.0,
      "surface_terrain": 13774.0,
      "longitude": 5.340771,
      "latitude": 46.309136,
      "code_departement": "01",
      "code_commune": "01426",
      "nom_commune": "Val-Revermont",
      "year": 2016,
      "price_m2": 459.65384615384613
    },
    {
      "nature_mutation": "Vente",
      "type_local": "Maison",
      "valeur_fonciere": 293570.0,
      "surface_reelle_bati": 131.0,
      "nombre_pieces_principales": 5.0,
      "surface_terrain": 1004.0,
      "longitude": 5.31244,
      "latitude": 46.140832,
      "code_departement": "01",
      "code_commune": "01422",
      "nom_commune": "Tossiat",
      "year": 2016,
      "price_m2": 2240.992366412214
    },
    {
      "nature_mutation": "Vente",
      "type_local": "Maison",
      "valeur_fonciere": 142000.0,
      "surface_reelle_bati": 110.0,
      "nombre_pieces_principales": 3.0,
      "surface_terrain": 170.0,
      "longitude": 5.329181,
      "latitude": 46.161066,
      "code_departement": "01",
      "code_commune": "01321",
      "nom_commune": "Revonnas",
      "year": 2016,
      "price_m2": 1290.909090909091
    },
    {
      "nature_mutation": "Vente",
      "type_local": "Maison",
      "valeur_fonciere": 211900.0,
      "surface_reelle_bati": 95.0,
      "nombre_pieces_principales": 4.0,
      "surface_terrain": 929.0,
      "longitude": 5.160396,
      "latitude": 46.279991,
      "code_departement": "01",
      "code_commune": "01024",
      "nom_commune": "Attignat",
      "year": 2016,
      "price_m2": 2230.5263157894738
    },
    {
      "nature_mutation": "Vente",
      "type_local": "Maison",
      "valeur_fonciere": 210000.0,
      "surface_reelle_bati": 96.0,
      "nombre_pieces_principales": 4.0,
      "surface_terrain": 911.0,
      "longitude": 5.120013,
      "latitude": 46.198314,
      "code_departement": "01",
      "code_commune": "01264",
      "nom_commune": "Montracol",
      "year": 2016,
      "price_m2": 2187.5
    },
    {
      "nature_mutation": "Vente",
      "type_local": "Maison",
      "valeur_fonciere": 203000.0,
      "surface_reelle_bati": 120.0,
      "nombre_pieces_principales": 4.0,
      "surface_terrain": 980.0,
      "longitude": 5.350498,
      "latitude": 46.238282,
      "code_departement": "01",
      "code_commune": "01241",
      "nom_commune": "Meillonnas",
      "year": 2016,
      "price_m2": 1691.6666666666667
    },
    {
      "nature_mutation": "Vente",
      "type_local": "Maison",
      "valeur_fonciere": 45000.0,
      "surface_reelle_bati": 107.0,
      "nombre_pieces_principales": 5.0,
      "surface_terrain": null,
      "longitude": 5.274941,
      "latitude": 46.196298,
      "code_departement": "01",
      "code_commune": "01053",
      "nom_commune": "Bourg-en-Bresse",
      "year": 2016,
      "price_m2": 420.5607476635514
    },
    {
      "nature_mutation": "Vente",
      "type_local": "Appartement",
      "valeur_fonciere": 100000.0,
      "surface_reelle_bati": 64.0,
      "nombre_pieces_principales": 5.0,
      "surface_terrain": null,
      "longitude": 4.843007,
      "latitude": 46.307415,
      "code_departement": "01",
      "code_commune": "01370",
      "nom_commune": "Saint-Laurent-sur-Saône",
      "year": 2016,
      "price_m2": 1562.5
    },
    {
      "nature_mutation": "Vente",
      "type_local": "Maison",
      "valeur_fonciere": 178000.0,
      "surface_reelle_bati": 97.0,
      "nombre_pieces_principales": 5.0,
      "surface_terrain": 222.0,
      "longitude": 5.252203,
      "latitude": 46.213417,
      "code_departement": "01",
      "code_commune": "01053",
      "nom_commune": "Bourg-en-Bresse",
      "year": 2016,
      "price_m2": 1835.0515463917525
    },
    {
      "nature_mutation": "Vente",
      "type_local": "Maison",
      "valeur_fonciere": 132880.0,
      "surface_reelle_bati": 73.0,
      "nombre_pieces_principales": 3.0,
      "surface_terrain": null,
      "longitude": 5.214858,
      "latitude": 46.219273,
      "code_departement": "01",
      "code_commune": "01451",
      "nom_commune": "Viriat",
      "year": 2016,
      "price_m2": 1820.2739726027398
    },
    {
      "nature_mutation": "Vente",
      "type_local": "Maison",
      "valeur_fonciere": 145000.0,
      "surface_reelle_bati": 113.0,
      "nombre_pieces_principales": 4.0,
      "surface_terrain": 560.0,
      "longitude": 5.328873,
      "latitude": 46.272453,
      "code_departement": "01",
      "code_commune": "01426",
      "nom_commune": "Val-Revermont",
      "year": 2016,
      "price_m2": 1283.1858407079646
    },
    {
      "nature_mutation": "Vente",
      "type_local": "Maison",
      "valeur_fonciere": 204300.0,
      "surface_reelle_bati": 90.0,
      "nombre_pieces_principales": 4.0,
      "surface_terrain": 744.0,
      "longitude": 5.248911,
      "latitude": 46.190995,
      "code_departement": "01",
      "code_commune": "01053",
      "nom_commune": "Bourg-en-Bresse",
      "year": 2016,
      "price_m2": 2270.0
    },
    {
      "nature_mutation": "Vente",
      "type_local": "Appartement",
      "valeur_fonciere": 38000.0,
      "surface_reelle_bati": 30.0,
      "nombre_pieces_principales": 0.0,
      "surface_terrain": null,
      "longitude": 5.221645,
      "latitude": 46.200778,
      "code_departement": "01",
      "code_commune": "01053",
      "nom_commune": "Bourg-en-Bresse",
      "year": 2016,
      "price_m2": 1266.6666666666667
    },
    {
      "nature_mutation": "Vente",
      "type_local": "Appartement",
      "valeur_fonciere": 161330.0,
      "surface_reelle_bati": 87.0,
      "nombre_pieces_principales": 4.0,
      "surface_terrain": null,
      "longitude": 5.320553,
      "latitude": 46.180804,
      "code_departement": "01",
      "code_commune": "01072",
      "nom_commune": "Ceyzériat",
      "year": 2016,
      "price_m2": 1854.367816091954
    },
    {
      "nature_mutation": "Vente",
      "type_local": "Appartement",
      "valeur_fonciere": 82000.0,
      "surface_reelle_bati": 56.0,
      "nombre_pieces_principales": 2.0,
      "surface_terrain": null,
      "longitude": 5.32586,
      "latitude": 46.213628,
      "code_departement": "01",
      "code_commune": "01195",
      "nom_commune": "Jasseron",
      "year": 2016,
      "price_m2": 1464.2857142857142
    },
    {
      "nature_mutation": "Vente",
      "type_local": "Maison",
      "valeur_fonciere": 200000.0,
      "surface_reelle_bati": 40.0,
      "nombre_pieces_principales": 1.0,
      "surface_terrain": 3880.0,
      "longitude": 5.223816,
      "latitude": 46.334186,
      "code_departement": "01",
      "code_commune": "01232",
      "nom_commune": "Marboz",
      "year": 2016,
      "price_m2": 5000.0
    },
    {
      "nature_mutation": "Vente",
      "type_local": "Maison",
      "valeur_fonciere": 200000.0,
      "surface_reelle_bati": 108.0,
      "nombre_pieces_principales": 4.0,
      "surface_terrain": 3880.0,
      "longitude": 5.223816,
      "latitude": 46.334186,
      "code_departement": "01",
      "code_commune": "01232",
      "nom_commune": "Marboz",
      "year": 2016,
      "price_m2": 1851.851851851852
    },
    {
      "nature_mutation": "Vente",
      "type_local": "Maison",
      "valeur_fonciere": 160000.0,
      "surface_reelle_bati": 90.0,
      "nombre_pieces_principales": 5.0,
      "surface_terrain": 768.0,
      "longitude": 5.206691,
      "latitude": 46.194041,
      "code_departement": "01",
      "code_commune": "01344",
      "nom_commune": "Saint-Denis-lès-Bourg",
      "year": 2016,
      "price_m2": 1777.7777777777778
    },
    {
      "nature_mutation": "Vente",
      "type_local": "Maison",
      "valeur_fonciere": 164000.0,
      "surface_reelle_bati": 172.0,
      "nombre_pieces_principales": 5.0,
      "surface_terrain": 2040.0,
      "longitude": 5.09699,
      "latitude": 46.435457,
      "code_departement": "01",
      "code_commune": "01230",
      "nom_commune": "Mantenay-Montlin",
      "year": 2016,
      "price_m2": 953.4883720930233
    },
    {
      "nature_mutation": "Vente",
      "type_local": "Maison",
      "valeur_fonciere": 128000.0,
      "surface_reelle_bati": 126.0,
      "nombre_pieces_principales": 4.0,
      "surface_terrain": 1613.0,
      "longitude": 4.964055,
      "latitude": 46.470812,
      "code_departement": "01",
      "code_commune": "01016",
      "nom_commune": "Arbigny",
      "year": 2016,
      "price_m2": 1015.8730158730159
    },
    {
      "nature_mutation": "Vente",
      "type_local": "Maison",
      "valeur_fonciere": 128000.0,
      "surface_reelle_bati": 70.0,
      "nombre_pieces_principales": 1.0,
      "surface_terrain": 1613.0,
      "longitude": 4.964055,
      "latitude": 46.470812,
      "code_departement": "01",
      "code_commune": "01016",
      "nom_commune": "Arbigny",
      "year": 2016,
      "price_m2": 1828.5714285714287
    },
    {
      "nature_mutation": "Vente",
      "type_local": "Maison",
      "valeur_fonciere": 128000.0,
      "surface_reelle_bati": 70.0,
      "nombre_pieces_principales": 1.0,
      "surface_terrain": 600.0,
      "longitude": 4.964055,
      "latitude": 46.470812,
      "code_departement": "01",
      "code_commune": "01016",
      "nom_commune": "Arbigny",
      "year": 2016,
      "price_m2": 1828.5714285714287
    },
    {
      "nature_mutation": "Vente",
      "type_local": "Maison",
      "valeur_fonciere": 128000.0,
      "surface_reelle_bati": 126.0,
      "nombre_pieces_principales": 4.0,
      "surface_terrain": 600.0,
      "longitude": 4.964055,
      "latitude": 46.470812,
      "code_departement": "01",
      "code_commune": "01016",
      "nom_commune": "Arbigny",
      "year": 2016,
      "price_m2": 1015.8730158730159
    },
    {
      "nature_mutation": "Vente",
      "type_local": "Appartement",
      "valeur_fonciere": 108800.0,
      "surface_reelle_bati": 84.0,
      "nombre_pieces_principales": 4.0,
      "surface_terrain": null,
      "longitude": 5.228886,
      "latitude": 46.200365,
      "code_departement": "01",
      "code_commune": "01053",
      "nom_commune": "Bourg-en-Bresse",
      "year": 2016,
      "price_m2": 1295.2380952380952
    },
    {
      "nature_mutation": "Vente",
      "type_local": "Maison",
      "valeur_fonciere": 216300.0,
      "surface_reelle_bati": 91.0,
      "nombre_pieces_principales": 5.0,
      "surface_terrain": 500.0,
      "longitude": 5.211072,
      "latitude": 46.202978,
      "code_departement": "01",
      "code_commune": "01053",
      "nom_commune": "Bourg-en-Bresse",
      "year": 2016,
      "price_m2": 2376.923076923077
    },
    {
      "nature_mutation": "Vente",
      "type_local": "Maison",
      "valeur_fonciere": 265500.0,
      "surface_reelle_bati": 136.0,
      "nombre_pieces_principales": 5.0,
      "surface_terrain": 2134.0,
      "longitude": 4.933789,
      "latitude": 46.311264,
      "code_departement": "01",
      "code_commune": "01026",
      "nom_commune": "Bâgé-le-Châtel",
      "year": 2016,
      "price_m2": 1952.2058823529412
    },
    {
      "nature_mutation": "Vente",
      "type_local": "Maison",
      "valeur_fonciere": 182644.0,
      "surface_reelle_bati": 100.0,
      "nombre_pieces_principales": 4.0,
      "surface_terrain": 269.0,
      "longitude": 4.885333,
      "latitude": 46.337298,
      "code_departement": "01",
      "code_commune": "01159",
      "nom_commune": "Feillens",
      "year": 2016,
      "price_m2": 1826.44
    },
    {
      "nature_mutation": "Vente",
      "type_local": "Maison",
      "valeur_fonciere": 100000.0,
      "surface_reelle_bati": 94.0,
      "nombre_pieces_principales": 4.0,
      "surface_terrain": 1415.0,
      "longitude": 4.889223,
      "latitude": 46.338981,
      "code_departement": "01",
      "code_commune": "01159",
      "nom_commune": "Feillens",
      "year": 2016,
      "price_m2": 1063.8297872340424
    },
    {
      "nature_mutation": "Vente",
      "type_local": "Appartement",
      "valeur_fonciere": 235714.0,
      "surface_reelle_bati": 109.0,
      "nombre_pieces_principales": 4.0,
      "surface_terrain": null,
      "longitude": 5.220738,
      "latitude": 46.203776,
      "code_departement": "01",
      "code_commune": "01053",
      "nom_commune": "Bourg-en-Bresse",
      "year": 2016,
      "price_m2": 2162.5137614678897
    },
    {
      "nature_mutation": "Vente",
      "type_local": "Maison",
      "valeur_fonciere": 120000.0,
      "surface_reelle_bati": 105.0,
      "nombre_pieces_principales": 5.0,
      "surface_terrain": 302.0,
      "longitude": 4.851572,
      "latitude": 46.258378,
      "code_departement": "01",
      "code_commune": "01179",
      "nom_commune": "Grièges",
      "year": 2016,
      "price_m2": 1142.857142857143
    },
    {
      "nature_mutation": "Vente",
      "type_local": "Maison",
      "valeur_fonciere": 190000.0,
      "surface_reelle_bati": 92.0,
      "nombre_pieces_principales": 4.0,
      "surface_terrain": 1744.0,
      "longitude": 4.888456,
      "latitude": 46.242592,
      "code_departement": "01",
      "code_commune": "01203",
      "nom_commune": "Laiz",
      "year": 2016,
      "price_m2": 2065.217391304348
    },
    {
      "nature_mutation": "Vente",
      "type_local": "Maison",
      "valeur_fonciere": 225000.0,
      "surface_reelle_bati": 104.0,
      "nombre_pieces_principales": 5.0,
      "surface_terrain": 617.0,
      "longitude": 5.345602,
      "latitude": 46.041779,
      "code_departement": "01",
      "code_commune": "01304",
      "nom_commune": "Pont-d'Ain",
      "year": 2016,
      "price_m2": 2163.4615384615386
    },
    {
      "nature_mutation": "Vente",
      "type_local": "Maison",
      "valeur_fonciere": 179500.0,
      "surface_reelle_bati": 111.0,
      "nombre_pieces_principales": 3.0,
      "surface_terrain": 579.0,
      "longitude": 5.101021,
      "latitude": 46.422131,
      "code_departement": "01",
      "code_commune": "01230",
      "nom_commune": "Mantenay-Montlin",
      "year": 2016,
      "price_m2": 1617.117117117117
    },
    {
      "nature_mutation": "Vente",
      "type_local": "Maison",
      "valeur_fonciere": 179500.0,
      "surface_reelle_bati": 111.0,
      "nombre_pieces_principales": 3.0,
      "surface_terrain": 700.0,
      "longitude": 5.101021,
      "latitude": 46.422131,
      "code_departement": "01",
      "code_commune": "01230",
      "nom_commune": "Mantenay-Montlin",
      "year": 2016,
      "price_m2": 1617.117117117117
    },
    {
      "nature_mutation": "Vente",
      "type_local": "Maison",
      "valeur_fonciere": 150000.0,
      "surface_reelle_bati": 71.0,
      "nombre_pieces_principales": 4.0,
      "surface_terrain": 566.0,
      "longitude": 5.235437,
      "latitude": 46.191879,
      "code_departement": "01",
      "code_commune": "01053",
      "nom_commune": "Bourg-en-Bresse",
      "year": 2016,
      "price_m2": 2112.676056338028
    },
    {
      "nature_mutation": "Vente",
      "type_local": "Maison",
      "valeur_fonciere": 198500.0,
      "surface_reelle_bati": 113.0,
      "nombre_pieces_principales": 5.0,
      "surface_terrain": 659.0,
      "longitude": 5.206537,
      "latitude": 46.195506,
      "code_departement": "01",
      "code_commune": "01344",
      "nom_commune": "Saint-Denis-lès-Bourg",
      "year": 2016,
      "price_m2": 1756.6371681415928
    },
    {
      "nature_mutation": "Vente",
      "type_local": "Appartement",
      "valeur_fonciere": 140000.0,
      "surface_reelle_bati": 60.0,
      "nombre_pieces_principales": 3.0,
      "surface_terrain": null,
      "longitude": 5.233978,
      "latitude": 46.211926,
      "code_departement": "01",
      "code_commune": "01053",
      "nom_commune": "Bourg-en-Bresse",
      "year": 2016,
      "price_m2": 2333.3333333333335
    },
    {
      "nature_mutation": "Vente",
      "type_local": "Appartement",
      "valeur_fonciere": 117961.0,
      "surface_reelle_bati": 81.0,
      "nombre_pieces_principales": 4.0,
      "surface_terrain": null,
      "longitude": 5.218471,
      "latitude": 46.200334,
      "code_departement": "01",
      "code_commune": "01053",
      "nom_commune": "Bourg-en-Bresse",
      "year": 2016,
      "price_m2": 1456.3086419753085
    },
    {
      "nature_mutation": "Vente",
      "type_local": "Maison",
      "valeur_fonciere": 166500.0,
      "surface_reelle_bati": 73.0,
      "nombre_pieces_principales": 3.0,
      "surface_terrain": 500.0,
      "longitude": 4.881248,
      "latitude": 46.262478,
      "code_departement": "01",
      "code_commune": "01306",
      "nom_commune": "Pont-de-Veyle",
      "year": 2016,
      "price_m2": 2280.821917808219
    },
    {
      "nature_mutation": "Vente",
      "type_local": "Appartement",
      "valeur_fonciere": 137000.0,
      "surface_reelle_bati": 78.0,
      "nombre_pieces_principales": 3.0,
      "surface_terrain": null,
      "longitude": 5.231594,
      "latitude": 46.201065,
      "code_departement": "01",
      "code_commune": "01053",
      "nom_commune": "Bourg-en-Bresse",
      "year": 2016,
      "price_m2": 1756.4102564102564
    },
    {
      "nature_mutation": "Vente",
      "type_local": "Maison",
      "valeur_fonciere": 177250.0,
      "surface_reelle_bati": 104.0,
      "nombre_pieces_principales": 5.0,
      "surface_terrain": null,
      "longitude": 5.274941,
      "latitude": 46.196298,
      "code_departement": "01",
      "code_commune": "01053",
      "nom_commune": "Bourg-en-Bresse",
      "year": 2016,
      "price_m2": 1704.326923076923
    },
    {
      "nature_mutation": "Vente",
      "type_local": "Maison",
      "valeur_fonciere": 135000.0,
      "surface_reelle_bati": 85.0,
      "nombre_pieces_principales": 3.0,
      "surface_terrain": 617.0,
      "longitude": 4.892734,
      "latitude": 46.326708,
      "code_departement": "01",
      "code_commune": "01159",
      "nom_commune": "Feillens",
      "year": 2016,
      "price_m2": 1588.235294117647
    },
    {
      "nature_mutation": "Vente",
      "type_local": "Appartement",
      "valeur_fonciere": 187350.0,
      "surface_reelle_bati": 69.0,
      "nombre_pieces_principales": 3.0,
      "surface_terrain": null,
      "longitude": 5.210758,
      "latitude": 46.195702,
      "code_departement": "01",
      "code_commune": "01053",
      "nom_commune": "Bourg-en-Bresse",
      "year": 2016,
      "price_m2": 2715.217391304348
    },
    {
      "nature_mutation": "Vente",
      "type_local": "Appartement",
      "valeur_fonciere": 199583.0,
      "surface_reelle_bati": 79.0,
      "nombre_pieces_principales": 4.0,
      "surface_terrain": null,
      "longitude": 5.210758,
      "latitude": 46.195702,
      "code_departement": "01",
      "code_commune": "01053",
      "nom_commune": "Bourg-en-Bresse",
      "year": 2016,
      "price_m2": 2526.3670886075947
    },
    {
      "nature_mutation": "Vente",
      "type_local": "Maison",
      "valeur_fonciere": 66666.66,
      "surface_reelle_bati": 154.0,
      "nombre_pieces_principales": 5.0,
      "surface_terrain": 3022.0,
      "longitude": 5.054345,
      "latitude": 46.300648,
      "code_departement": "01",
      "code_commune": "01346",
      "nom_commune": "Saint-Didier-d'Aussiat",
      "year": 2016,
      "price_m2": 432.90038961038965
    },
    {
      "nature_mutation": "Vente",
      "type_local": "Maison",
      "valeur_fonciere": 288200.0,
      "surface_reelle_bati": 131.0,
      "nombre_pieces_principales": 4.0,
      "surface_terrain": 500.0,
      "longitude": 5.284823,
      "latitude": 46.290718,
      "code_departement": "01",
      "code_commune": "01350",
      "nom_commune": "Saint-Étienne-du-Bois",
      "year": 2016,
      "price_m2": 2200.0
    },
    {
      "nature_mutation": "Vente",
      "type_local": "Maison",
      "valeur_fonciere": 288200.0,
      "surface_reelle_bati": 131.0,
      "nombre_pieces_principales": 4.0,
      "surface_terrain": 1608.0,
      "longitude": 5.284823,
      "latitude": 46.290718,
      "code_departement": "01",
      "code_commune": "01350",
      "nom_commune": "Saint-Étienne-du-Bois",
      "year": 2016,
      "price_m2": 2200.0
    },
    {
      "nature_mutation": "Vente",
      "type_local": "Maison",
      "valeur_fonciere": 215850.0,
      "surface_reelle_bati": 100.0,
      "nombre_pieces_principales": 5.0,
      "surface_terrain": 660.0,
      "longitude": 5.323071,
      "latitude": 46.209686,
      "code_departement": "01",
      "code_commune": "01195",
      "nom_commune": "Jasseron",
      "year": 2016,
      "price_m2": 2158.5
    },
    {
      "nature_mutation": "Vente",
      "type_local": "Maison",
      "valeur_fonciere": 120000.0,
      "surface_reelle_bati": 50.0,
      "nombre_pieces_principales": 2.0,
      "surface_terrain": 123.0,
      "longitude": 5.368393,
      "latitude": 46.330993,
      "code_departement": "01",
      "code_commune": "01127",
      "nom_commune": "Courmangoux",
      "year": 2016,
      "price_m2": 2400.0
    },
    {
      "nature_mutation": "Vente",
      "type_local": "Appartement",
      "valeur_fonciere": 128000.0,
      "surface_reelle_bati": 48.0,
      "nombre_pieces_principales": 2.0,
      "surface_terrain": null,
      "longitude": 5.233978,
      "latitude": 46.211926,
      "code_departement": "01",
      "code_commune": "01053",
      "nom_commune": "Bourg-en-Bresse",
      "year": 2016,
      "price_m2": 2666.6666666666665
    },
    {
      "nature_mutation": "Vente",
      "type_local": "Maison",
      "valeur_fonciere": 110000.0,
      "surface_reelle_bati": 68.0,
      "nombre_pieces_principales": 2.0,
      "surface_terrain": 500.0,
      "longitude": 5.131312,
      "latitude": 46.3294,
      "code_departement": "01",
      "code_commune": "01229",
      "nom_commune": "Malafretaz",
      "year": 2016,
      "price_m2": 1617.6470588235295
    },
    {
      "nature_mutation": "Vente",
      "type_local": "Maison",
      "valeur_fonciere": 110000.0,
      "surface_reelle_bati": 57.0,
      "nombre_pieces_principales": 4.0,
      "surface_terrain": 655.0,
      "longitude": 5.1314,
      "latitude": 46.329331,
      "code_departement": "01",
      "code_commune": "01229",
      "nom_commune": "Malafretaz",
      "year": 2016,
      "price_m2": 1929.8245614035088
    },
    {
      "nature_mutation": "Vente",
      "type_local": "Appartement",
      "valeur_fonciere": 35000.0,
      "surface_reelle_bati": 31.0,
      "nombre_pieces_principales": 1.0,
      "surface_terrain": null,
      "longitude": 5.230416,
      "latitude": 46.205123,
      "code_departement": "01",
      "code_commune": "01053",
      "nom_commune": "Bourg-en-Bresse",
      "year": 2016,
      "price_m2": 1129.032258064516
    },
    {
      "nature_mutation": "Vente",
      "type_local": "Appartement",
      "valeur_fonciere": 27500.0,
      "surface_reelle_bati": 30.0,
      "nombre_pieces_principales": 2.0,
      "surface_terrain": null,
      "longitude": 5.230416,
      "latitude": 46.205123,
      "code_departement": "01",
      "code_commune": "01053",
      "nom_commune": "Bourg-en-Bresse",
      "year": 2016,
      "price_m2": 916.6666666666666
    },
    {
      "nature_mutation": "Vente",
      "type_local": "Maison",
      "valeur_fonciere": 110000.0,
      "surface_reelle_bati": 72.0,
      "nombre_pieces_principales": 3.0,
      "surface_terrain": 692.0,
      "longitude": 5.365063,
      "latitude": 46.33578,
      "code_departement": "01",
      "code_commune": "01127",
      "nom_commune": "Courmangoux",
      "year": 2016,
      "price_m2": 1527.7777777777778
    },
    {
      "nature_mutation": "Vente",
      "type_local": "Maison",
      "valeur_fonciere": 42360.0,
      "surface_reelle_bati": 70.0,
      "nombre_pieces_principales": 2.0,
      "surface_terrain": 215.0,
      "longitude": 5.37028,
      "latitude": 46.271495,
      "code_departement": "01",
      "code_commune": "01426",
      "nom_commune": "Val-Revermont",
      "year": 2016,
      "price_m2": 605.1428571428571
    },
    {
      "nature_mutation": "Vente",
      "type_local": "Maison",
      "valeur_fonciere": 182000.0,
      "surface_reelle_bati": 52.0,
      "nombre_pieces_principales": 0.0,
      "surface_terrain": 1604.0,
      "longitude": 4.933494,
      "latitude": 46.348738,
      "code_departement": "01",
      "code_commune": "01025",
      "nom_commune": "Bâgé-Dommartin",
      "year": 2016,
      "price_m2": 3500.0
    },
    {
      "nature_mutation": "Vente",
      "type_local": "Maison",
      "valeur_fonciere": 182000.0,
      "surface_reelle_bati": 100.0,
      "nombre_pieces_principales": 5.0,
      "surface_terrain": 1604.0,
      "longitude": 4.933494,
      "latitude": 46.348738,
      "code_departement": "01",
      "code_commune": "01025",
      "nom_commune": "Bâgé-Dommartin",
      "year": 2016,
      "price_m2": 1820.0
    },
    {
      "nature_mutation": "Vente",
      "type_local": "Maison",
      "valeur_fonciere": 166450.0,
      "surface_reelle_bati": 180.0,
      "nombre_pieces_principales": 6.0,
      "surface_terrain": 807.0,
      "longitude": 4.842228,
      "latitude": 46.219392,
      "code_departement": "01",
      "code_commune": "01042",
      "nom_commune": "Bey",
      "year": 2016,
      "price_m2": 924.7222222222222
    },
    {
      "nature_mutation": "Vente",
      "type_local": "Maison",
      "valeur_fonciere": 150000.0,
      "surface_reelle_bati": 105.0,
      "nombre_pieces_principales": 5.0,
      "surface_terrain": 733.0,
      "longitude": 5.1026,
      "latitude": 46.468501,
      "code_departement": "01",
      "code_commune": "01128",
      "nom_commune": "Courtes",
      "year": 2016,
      "price_m2": 1428.5714285714287
    },
    {
      "nature_mutation": "Vente",
      "type_local": "Maison",
      "valeur_fonciere": 150000.0,
      "surface_reelle_bati": 105.0,
      "nombre_pieces_principales": 5.0,
      "surface_terrain": 600.0,
      "longitude": 5.1026,
      "latitude": 46.468501,
      "code_departement": "01",
      "code_commune": "01128",
      "nom_commune": "Courtes",
      "year": 2016,
      "price_m2": 1428.5714285714287
    },
    {
      "nature_mutation": "Vente",
      "type_local": "Maison",
      "valeur_fonciere": 47000.0,
      "surface_reelle_bati": 75.0,
      "nombre_pieces_principales": 2.0,
      "surface_terrain": 2150.0,
      "longitude": 5.118406,
      "latitude": 46.481023,
      "code_departement": "01",
      "code_commune": "01433",
      "nom_commune": "Vernoux",
      "year": 2016,
      "price_m2": 626.6666666666666
    },
    {
      "nature_mutation": "Vente",
      "type_local": "Maison",
      "valeur_fonciere": 145000.0,
      "surface_reelle_bati": 86.0,
      "nombre_pieces_principales": 4.0,
      "surface_terrain": 2665.0,
      "longitude": 5.005076,
      "latitude": 46.291434,
      "code_departement": "01",
      "code_commune": "01355",
      "nom_commune": "Saint-Genis-sur-Menthon",
      "year": 2016,
      "price_m2": 1686.046511627907
    },
    {
      "nature_mutation": "Vente",
      "type_local": "Maison",
      "valeur_fonciere": 399090.0,
      "surface_reelle_bati": 217.0,
      "nombre_pieces_principales": 7.0,
      "surface_terrain": 2630.0,
      "longitude": 4.911115,
      "latitude": 46.226541,
      "code_departement": "01",
      "code_commune": "01334",
      "nom_commune": "Saint-André-d'Huiriat",
      "year": 2016,
      "price_m2": 1839.1244239631337
    },
    {
      "nature_mutation": "Vente",
      "type_local": "Maison",
      "valeur_fonciere": 170000.0,
      "surface_reelle_bati": 78.0,
      "nombre_pieces_principales": 3.0,
      "surface_terrain": 685.0,
      "longitude": 5.196581,
      "latitude": 46.201824,
      "code_departement": "01",
      "code_commune": "01344",
      "nom_commune": "Saint-Denis-lès-Bourg",
      "year": 2016,
      "price_m2": 2179.4871794871797
    },
    {
      "nature_mutation": "Vente",
      "type_local": "Maison",
      "valeur_fonciere": 110000.0,
      "surface_reelle_bati": 53.0,
      "nombre_pieces_principales": 3.0,
      "surface_terrain": 394.0,
      "longitude": 5.202728,
      "latitude": 46.19949,
      "code_departement": "01",
      "code_commune": "01344",
      "nom_commune": "Saint-Denis-lès-Bourg",
      "year": 2016,
      "price_m2": 2075.4716981132074
    },
    {
      "nature_mutation": "Vente",
      "type_local": "Appartement",
      "valeur_fonciere": 83142.0,
      "surface_reelle_bati": 32.0,
      "nombre_pieces_principales": 3.0,
      "surface_terrain": null,
      "longitude": 5.129678,
      "latitude": 46.33746,
      "code_departement": "01",
      "code_commune": "01266",
      "nom_commune": "Montrevel-en-Bresse",
      "year": 2016,
      "price_m2": 2598.1875
    },
    {
      "nature_mutation": "Vente",
      "type_local": "Maison",
      "valeur_fonciere": 154000.0,
      "surface_reelle_bati": 127.0,
      "nombre_pieces_principales": 4.0,
      "surface_terrain": 1235.0,
      "longitude": 4.854595,
      "latitude": 46.256979,
      "code_departement": "01",
      "code_commune": "01179",
      "nom_commune": "Grièges",
      "year": 2016,
      "price_m2": 1212.5984251968505
    },
    {
      "nature_mutation": "Vente",
      "type_local": "Maison",
      "valeur_fonciere": 85000.0,
      "surface_reelle_bati": 92.0,
      "nombre_pieces_principales": 3.0,
      "surface_terrain": 1267.0,
      "longitude": 5.270997,
      "latitude": 46.412422,
      "code_departement": "01",
      "code_commune": "01029",
      "nom_commune": "Beaupont",
      "year": 2016,
      "price_m2": 923.9130434782609
    },
    {
      "nature_mutation": "Vente",
      "type_local": "Maison",
      "valeur_fonciere": 245000.0,
      "surface_reelle_bati": 121.0,
      "nombre_pieces_principales": 5.0,
      "surface_terrain": 1000.0,
      "longitude": 5.160421,
      "latitude": 46.294461,
      "code_departement": "01",
      "code_commune": "01024",
      "nom_commune": "Attignat",
      "year": 2016,
      "price_m2": 2024.793388429752
    },
    {
      "nature_mutation": "Vente",
      "type_local": "Maison",
      "valeur_fonciere": 245000.0,
      "surface_reelle_bati": 121.0,
      "nombre_pieces_principales": 5.0,
      "surface_terrain": 1148.0,
      "longitude": 5.160421,
      "latitude": 46.294461,
      "code_departement": "01",
      "code_commune": "01024",
      "nom_commune": "Attignat",
      "year": 2016,
      "price_m2": 2024.793388429752
    },
    {
      "nature_mutation": "Vente",
      "type_local": "Maison",
      "valeur_fonciere": 223500.0,
      "surface_reelle_bati": 144.0,
      "nombre_pieces_principales": 5.0,
      "surface_terrain": 856.0,
      "longitude": 4.850543,
      "latitude": 46.258736,
      "code_departement": "01",
      "code_commune": "01179",
      "nom_commune": "Grièges",
      "year": 2016,
      "price_m2": 1552.0833333333333
    },
    {
      "nature_mutation": "Vente",
      "type_local": "Maison",
      "valeur_fonciere": 177500.0,
      "surface_reelle_bati": 132.0,
      "nombre_pieces_principales": 5.0,
      "surface_terrain": 1360.0,
      "longitude": 5.236783,
      "latitude": 46.416273,
      "code_departement": "01",
      "code_commune": "01124",
      "nom_commune": "Cormoz",
      "year": 2016,
      "price_m2": 1344.6969696969697
    },
    {
      "nature_mutation": "Vente",
      "type_local": "Maison",
      "valeur_fonciere": 177500.0,
      "surface_reelle_bati": 132.0,
      "nombre_pieces_principales": 5.0,
      "surface_terrain": 780.0,
      "longitude": 5.236783,
      "latitude": 46.416273,
      "code_departement": "01",
      "code_commune": "01124",
      "nom_commune": "Cormoz",
      "year": 2016,
      "price_m2": 1344.6969696969697
    },
    {
      "nature_mutation": "Vente",
      "type_local": "Maison",
      "valeur_fonciere": 215000.0,
      "surface_reelle_bati": 85.0,
      "nombre_pieces_principales": 3.0,
      "surface_terrain": 121.0,
      "longitude": 4.840691,
      "latitude": 46.304444,
      "code_departement": "01",
      "code_commune": "01370",
      "nom_commune": "Saint-Laurent-sur-Saône",
      "year": 2016,
      "price_m2": 2529.4117647058824
    },
    {
      "nature_mutation": "Vente",
      "type_local": "Maison",
      "valeur_fonciere": 312750.0,
      "surface_reelle_bati": 178.0,
      "nombre_pieces_principales": 6.0,
      "surface_terrain": 1192.0,
      "longitude": 4.944708,
      "latitude": 46.263462,
      "code_departement": "01",
      "code_commune": "01343",
      "nom_commune": "Saint-Cyr-sur-Menthon",
      "year": 2016,
      "price_m2": 1757.0224719101125
    },
    {
      "nature_mutation": "Vente",
      "type_local": "Maison",
      "valeur_fonciere": 312750.0,
      "surface_reelle_bati": 178.0,
      "nombre_pieces_principales": 6.0,
      "surface_terrain": 1500.0,
      "longitude": 4.944708,
      "latitude": 46.263462,
      "code_departement": "01",
      "code_commune": "01343",
      "nom_commune": "Saint-Cyr-sur-Menthon",
      "year": 2016,
      "price_m2": 1757.0224719101125
    },
    {
      "nature_mutation": "Vente",
      "type_local": "Maison",
      "valeur_fonciere": 149000.0,
      "surface_reelle_bati": 80.0,
      "nombre_pieces_principales": 3.0,
      "surface_terrain": 143.0,
      "longitude": 5.128971,
      "latitude": 46.335622,
      "code_departement": "01",
      "code_commune": "01266",
      "nom_commune": "Montrevel-en-Bresse",
      "year": 2016,
      "price_m2": 1862.5
    },
    {
      "nature_mutation": "Vente",
      "type_local": "Maison",
      "valeur_fonciere": 142000.0,
      "surface_reelle_bati": 110.0,
      "nombre_pieces_principales": 3.0,
      "surface_terrain": 362.0,
      "longitude": 5.131984,
      "latitude": 46.332039,
      "code_departement": "01",
      "code_commune": "01229",
      "nom_commune": "Malafretaz",
      "year": 2016,
      "price_m2": 1290.909090909091
    },
    {
      "nature_mutation": "Vente",
      "type_local": "Maison",
      "valeur_fonciere": 142000.0,
      "surface_reelle_bati": 52.0,
      "nombre_pieces_principales": 3.0,
      "surface_terrain": 362.0,
      "longitude": 5.131984,
      "latitude": 46.332039,
      "code_departement": "01",
      "code_commune": "01229",
      "nom_commune": "Malafretaz",
      "year": 2016,
      "price_m2": 2730.769230769231
    },
    {
      "nature_mutation": "Vente",
      "type_local": "Appartement",
      "valeur_fonciere": 100000.0,
      "surface_reelle_bati": 56.0,
      "nombre_pieces_principales": 2.0,
      "surface_terrain": null,
      "longitude": 5.245491,
      "latitude": 46.186382,
      "code_departement": "01",
      "code_commune": "01053",
      "nom_commune": "Bourg-en-Bresse",
      "year": 2016,
      "price_m2": 1785.7142857142858
    },
    {
      "nature_mutation": "Vente",
      "type_local": "Appartement",
      "valeur_fonciere": 100000.0,
      "surface_reelle_bati": 56.0,
      "nombre_pieces_principales": 2.0,
      "surface_terrain": null,
      "longitude": 5.245491,
      "latitude": 46.186382,
      "code_departement": "01",
      "code_commune": "01053",
      "nom_commune": "Bourg-en-Bresse",
      "year": 2016,
      "price_m2": 1785.7142857142858
    },
    {
      "nature_mutation": "Vente",
      "type_local": "Appartement",
      "valeur_fonciere": 212000.0,
      "surface_reelle_bati": 96.0,
      "nombre_pieces_principales": 3.0,
      "surface_terrain": 184.0,
      "longitude": 4.938734,
      "latitude": 46.428806,
      "code_departement": "01",
      "code_commune": "01305",
      "nom_commune": "Pont-de-Vaux",
      "year": 2016,
      "price_m2": 2208.3333333333335
    },
    {
      "nature_mutation": "Vente",
      "type_local": "Appartement",
      "valeur_fonciere": 212000.0,
      "surface_reelle_bati": 70.0,
      "nombre_pieces_principales": 4.0,
      "surface_terrain": 184.0,
      "longitude": 4.938734,
      "latitude": 46.428806,
      "code_departement": "01",
      "code_commune": "01305",
      "nom_commune": "Pont-de-Vaux",
      "year": 2016,
      "price_m2": 3028.5714285714284
    },
    {
      "nature_mutation": "Vente",
      "type_local": "Appartement",
      "valeur_fonciere": 212000.0,
      "surface_reelle_bati": 70.0,
      "nombre_pieces_principales": 4.0,
      "surface_terrain": 184.0,
      "longitude": 4.938734,
      "latitude": 46.428806,
      "code_departement": "01",
      "code_commune": "01305",
      "nom_commune": "Pont-de-Vaux",
      "year": 2016,
      "price_m2": 3028.5714285714284
    },
    {
      "nature_mutation": "Vente",
      "type_local": "Appartement",
      "valeur_fonciere": 90000.0,
      "surface_reelle_bati": 49.0,
      "nombre_pieces_principales": 2.0,
      "surface_terrain": null,
      "longitude": 5.223823,
      "latitude": 46.206172,
      "code_departement": "01",
      "code_commune": "01053",
      "nom_commune": "Bourg-en-Bresse",
      "year": 2016,
      "price_m2": 1836.734693877551
    },
    {
      "nature_mutation": "Vente",
      "type_local": "Appartement",
      "valeur_fonciere": 75000.0,
      "surface_reelle_bati": 80.0,
      "nombre_pieces_principales": 4.0,
      "surface_terrain": null,
      "longitude": 5.246947,
      "latitude": 46.201707,
      "code_departement": "01",
      "code_commune": "01053",
      "nom_commune": "Bourg-en-Bresse",
      "year": 2016,
      "price_m2": 937.5
    },
    {
      "nature_mutation": "Vente",
      "type_local": "Maison",
      "valeur_fonciere": 205000.0,
      "surface_reelle_bati": 116.0,
      "nombre_pieces_principales": 5.0,
      "surface_terrain": 816.0,
      "longitude": 5.219532,
      "latitude": 46.246073,
      "code_departement": "01",
      "code_commune": "01451",
      "nom_commune": "Viriat",
      "year": 2016,
      "price_m2": 1767.2413793103449
    },
    {
      "nature_mutation": "Vente",
      "type_local": "Appartement",
      "valeur_fonciere": 89000.0,
      "surface_reelle_bati": 76.0,
      "nombre_pieces_principales": 4.0,
      "surface_terrain": null,
      "longitude": 5.238636,
      "latitude": 46.192321,
      "code_departement": "01",
      "code_commune": "01053",
      "nom_commune": "Bourg-en-Bresse",
      "year": 2016,
      "price_m2": 1171.0526315789473
    },
    {
      "nature_mutation": "Vente",
      "type_local": "Maison",
      "valeur_fonciere": 125000.0,
      "surface_reelle_bati": 90.0,
      "nombre_pieces_principales": 4.0,
      "surface_terrain": 1191.0,
      "longitude": 5.13876,
      "latitude": 46.282003,
      "code_departement": "01",
      "code_commune": "01375",
      "nom_commune": "Saint-Martin-le-Châtel",
      "year": 2016,
      "price_m2": 1388.888888888889
    },
    {
      "nature_mutation": "Vente",
      "type_local": "Maison",
      "valeur_fonciere": 125000.0,
      "surface_reelle_bati": 90.0,
      "nombre_pieces_principales": 4.0,
      "surface_terrain": 859.0,
      "longitude": 5.13876,
      "latitude": 46.282003,
      "code_departement": "01",
      "code_commune": "01375",
      "nom_commune": "Saint-Martin-le-Châtel",
      "year": 2016,
      "price_m2": 1388.888888888889
    },
    {
      "nature_mutation": "Vente",
      "type_local": "Maison",
      "valeur_fonciere": 125000.0,
      "surface_reelle_bati": 90.0,
      "nombre_pieces_principales": 4.0,
      "surface_terrain": 2704.0,
      "longitude": 5.13876,
      "latitude": 46.282003,
      "code_departement": "01",
      "code_commune": "01375",
      "nom_commune": "Saint-Martin-le-Châtel",
      "year": 2016,
      "price_m2": 1388.888888888889
    },
    {
      "nature_mutation": "Vente",
      "type_local": "Appartement",
      "valeur_fonciere": 92000.0,
      "surface_reelle_bati": 67.0,
      "nombre_pieces_principales": 2.0,
      "surface_terrain": null,
      "longitude": 5.235892,
      "latitude": 46.190847,
      "code_departement": "01",
      "code_commune": "01053",
      "nom_commune": "Bourg-en-Bresse",
      "year": 2016,
      "price_m2": 1373.134328358209
    },
    {
      "nature_mutation": "Vente",
      "type_local": "Maison",
      "valeur_fonciere": 140000.0,
      "surface_reelle_bati": 70.0,
      "nombre_pieces_principales": 4.0,
      "surface_terrain": 696.0,
      "longitude": 5.206628,
      "latitude": 46.179432,
      "code_departement": "01",
      "code_commune": "01289",
      "nom_commune": "Péronnas",
      "year": 2016,
      "price_m2": 2000.0
    },
    {
      "nature_mutation": "Vente",
      "type_local": "Appartement",
      "valeur_fonciere": 100000.0,
      "surface_reelle_bati": 74.0,
      "nombre_pieces_principales": 4.0,
      "surface_terrain": null,
      "longitude": 5.220572,
      "latitude": 46.207305,
      "code_departement": "01",
      "code_commune": "01053",
      "nom_commune": "Bourg-en-Bresse",
      "year": 2016,
      "price_m2": 1351.3513513513512
    },
    {
      "nature_mutation": "Vente",
      "type_local": "Maison",
      "valeur_fonciere": 190000.0,
      "surface_reelle_bati": 134.0,
      "nombre_pieces_principales": 4.0,
      "surface_terrain": 4000.0,
      "longitude": 5.100658,
      "latitude": 46.294713,
      "code_departement": "01",
      "code_commune": "01375",
      "nom_commune": "Saint-Martin-le-Châtel",
      "year": 2016,
      "price_m2": 1417.910447761194
    },
    {
      "nature_mutation": "Vente",
      "type_local": "Appartement",
      "valeur_fonciere": 84000.0,
      "surface_reelle_bati": 50.0,
      "nombre_pieces_principales": 2.0,
      "surface_terrain": null,
      "longitude": 5.222972,
      "latitude": 46.205625,
      "code_departement": "01",
      "code_commune": "01053",
      "nom_commune": "Bourg-en-Bresse",
      "year": 2016,
      "price_m2": 1680.0
    },
    {
      "nature_mutation": "Vente",
      "type_local": "Maison",
      "valeur_fonciere": 40600.0,
      "surface_reelle_bati": 60.0,
      "nombre_pieces_principales": 2.0,
      "surface_terrain": 182.0,
      "longitude": 5.372545,
      "latitude": 46.077116,
      "code_departement": "01",
      "code_commune": "01273",
      "nom_commune": "Neuville-sur-Ain",
      "year": 2016,
      "price_m2": 676.6666666666666
    },
    {
      "nature_mutation": "Vente",
      "type_local": "Maison",
      "valeur_fonciere": 217800.0,
      "surface_reelle_bati": 120.0,
      "nombre_pieces_principales": 6.0,
      "surface_terrain": 1000.0,
      "longitude": 5.240639,
      "latitude": 46.425841,
      "code_departement": "01",
      "code_commune": "01124",
      "nom_commune": "Cormoz",
      "year": 2016,
      "price_m2": 1815.0
    },
    {
      "nature_mutation": "Vente",
      "type_local": "Maison",
      "valeur_fonciere": 217800.0,
      "surface_reelle_bati": 120.0,
      "nombre_pieces_principales": 6.0,
      "surface_terrain": 500.0,
      "longitude": 5.240639,
      "latitude": 46.425841,
      "code_departement": "01",
      "code_commune": "01124",
      "nom_commune": "Cormoz",
      "year": 2016,
      "price_m2": 1815.0
    },
    {
      "nature_mutation": "Vente",
      "type_local": "Maison",
      "valeur_fonciere": 150000.0,
      "surface_reelle_bati": 81.0,
      "nombre_pieces_principales": 2.0,
      "surface_terrain": 1444.0,
      "longitude": 5.159366,
      "latitude": 46.288465,
      "code_departement": "01",
      "code_commune": "01024",
      "nom_commune": "Attignat",
      "year": 2016,
      "price_m2": 1851.851851851852
    },
    {
      "nature_mutation": "Vente",
      "type_local": "Maison",
      "valeur_fonciere": 150000.0,
      "surface_reelle_bati": 81.0,
      "nombre_pieces_principales": 2.0,
      "surface_terrain": 500.0,
      "longitude": 5.159366,
      "latitude": 46.288465,
      "code_departement": "01",
      "code_commune": "01024",
      "nom_commune": "Attignat",
      "year": 2016,
      "price_m2": 1851.851851851852
    },
    {
      "nature_mutation": "Vente",
      "type_local": "Maison",
      "valeur_fonciere": 110000.0,
      "surface_reelle_bati": 60.0,
      "nombre_pieces_principales": 2.0,
      "surface_terrain": 1849.0,
      "longitude": 5.14947,
      "latitude": 46.293645,
      "code_departement": "01",
      "code_commune": "01024",
      "nom_commune": "Attignat",
      "year": 2016,
      "price_m2": 1833.3333333333333
    },
    {
      "nature_mutation": "Vente",
      "type_local": "Appartement",
      "valeur_fonciere": 70000.0,
      "surface_reelle_bati": 39.0,
      "nombre_pieces_principales": 2.0,
      "surface_terrain": null,
      "longitude": 5.230933,
      "latitude": 46.203727,
      "code_departement": "01",
      "code_commune": "01053",
      "nom_commune": "Bourg-en-Bresse",
      "year": 2016,
      "price_m2": 1794.871794871795
    },
    {
      "nature_mutation": "Vente",
      "type_local": "Maison",
      "valeur_fonciere": 217520.0,
      "surface_reelle_bati": 127.0,
      "nombre_pieces_principales": 5.0,
      "surface_terrain": 1338.0,
      "longitude": null,
      "latitude": null,
      "code_departement": "01",
      "code_commune": "01320",
      "nom_commune": "Replonges",
      "year": 2016,
      "price_m2": 1712.755905511811
    },
    {
      "nature_mutation": "Vente",
      "type_local": "Appartement",
      "valeur_fonciere": 115000.0,
      "surface_reelle_bati": 69.0,
      "nombre_pieces_principales": 3.0,
      "surface_terrain": null,
      "longitude": 5.241335,
      "latitude": 46.19368,
      "code_departement": "01",
      "code_commune": "01053",
      "nom_commune": "Bourg-en-Bresse",
      "year": 2016,
      "price_m2": 1666.6666666666667
    },
    {
      "nature_mutation": "Vente",
      "type_local": "Appartement",
      "valeur_fonciere": 110000.0,
      "surface_reelle_bati": 76.0,
      "nombre_pieces_principales": 4.0,
      "surface_terrain": null,
      "longitude": 4.841346,
      "latitude": 46.309483,
      "code_departement": "01",
      "code_commune": "01370",
      "nom_commune": "Saint-Laurent-sur-Saône",
      "year": 2016,
      "price_m2": 1447.3684210526317
    },
    {
      "nature_mutation": "Vente",
      "type_local": "Maison",
      "valeur_fonciere": 145000.0,
      "surface_reelle_bati": 86.0,
      "nombre_pieces_principales": 4.0,
      "surface_terrain": 167.0,
      "longitude": 5.253262,
      "latitude": 46.21299,
      "code_departement": "01",
      "code_commune": "01053",
      "nom_commune": "Bourg-en-Bresse",
      "year": 2016,
      "price_m2": 1686.046511627907
    },
    {
      "nature_mutation": "Vente",
      "type_local": "Maison",
      "valeur_fonciere": 160000.0,
      "surface_reelle_bati": 74.0,
      "nombre_pieces_principales": 3.0,
      "surface_terrain": 2213.0,
      "longitude": 4.906032,
      "latitude": 46.362652,
      "code_departement": "01",
      "code_commune": "01231",
      "nom_commune": "Manziat",
      "year": 2016,
      "price_m2": 2162.162162162162
    },
    {
      "nature_mutation": "Vente",
      "type_local": "Appartement",
      "valeur_fonciere": 100000.0,
      "surface_reelle_bati": 17.0,
      "nombre_pieces_principales": 1.0,
      "surface_terrain": null,
      "longitude": 5.237656,
      "latitude": 46.20443,
      "code_departement": "01",
      "code_commune": "01053",
      "nom_commune": "Bourg-en-Bresse",
      "year": 2016,
      "price_m2": 5882.35294117647
    },
    {
      "nature_mutation": "Vente",
      "type_local": "Appartement",
      "valeur_fonciere": 100000.0,
      "surface_reelle_bati": 17.0,
      "nombre_pieces_principales": 1.0,
      "surface_terrain": null,
      "longitude": 5.237656,
      "latitude": 46.20443,
      "code_departement": "01",
      "code_commune": "01053",
      "nom_commune": "Bourg-en-Bresse",
      "year": 2016,
      "price_m2": 5882.35294117647
    },
    {
      "nature_mutation": "Vente",
      "type_local": "Appartement",
      "valeur_fonciere": 100000.0,
      "surface_reelle_bati": 17.0,
      "nombre_pieces_principales": 1.0,
      "surface_terrain": null,
      "longitude": 5.237656,
      "latitude": 46.20443,
      "code_departement": "01",
      "code_commune": "01053",
      "nom_commune": "Bourg-en-Bresse",
      "year": 2016,
      "price_m2": 5882.35294117647
    },
    {
      "nature_mutation": "Vente",
      "type_local": "Maison",
      "valeur_fonciere": 73000.0,
      "surface_reelle_bati": 88.0,
      "nombre_pieces_principales": 4.0,
      "surface_terrain": 648.0,
      "longitude": 4.948766,
      "latitude": 46.442903,
      "code_departement": "01",
      "code_commune": "01337",
      "nom_commune": "Saint-Bénigne",
      "year": 2016,
      "price_m2": 829.5454545454545
    },
    {
      "nature_mutation": "Vente",
      "type_local": "Maison",
      "valeur_fonciere": 294500.0,
      "surface_reelle_bati": 124.0,
      "nombre_pieces_principales": 4.0,
      "surface_terrain": 2862.0,
      "longitude": 5.338368,
      "latitude": 46.267304,
      "code_departement": "01",
      "code_commune": "01426",
      "nom_commune": "Val-Revermont",
      "year": 2016,
      "price_m2": 2375.0
    },
    {
      "nature_mutation": "Vente",
      "type_local": "Maison",
      "valeur_fonciere": 294500.0,
      "surface_reelle_bati": 124.0,
      "nombre_pieces_principales": 4.0,
      "surface_terrain": 1838.0,
      "longitude": 5.338368,
      "latitude": 46.267304,
      "code_departement": "01",
      "code_commune": "01426",
      "nom_commune": "Val-Revermont",
      "year": 2016,
      "price_m2": 2375.0
    },
    {
      "nature_mutation": "Vente",
      "type_local": "Maison",
      "valeur_fonciere": 168000.0,
      "surface_reelle_bati": 87.0,
      "nombre_pieces_principales": 4.0,
      "surface_terrain": 249.0,
      "longitude": 5.24036,
      "latitude": 46.190873,
      "code_departement": "01",
      "code_commune": "01053",
      "nom_commune": "Bourg-en-Bresse",
      "year": 2016,
      "price_m2": 1931.0344827586207
    },
    {
      "nature_mutation": "Vente",
      "type_local": "Maison",
      "valeur_fonciere": 211500.0,
      "surface_reelle_bati": 136.0,
      "nombre_pieces_principales": 5.0,
      "surface_terrain": 765.0,
      "longitude": 4.919818,
      "latitude": 46.43635,
      "code_departement": "01",
      "code_commune": "01323",
      "nom_commune": "Reyssouze",
      "year": 2016,
      "price_m2": 1555.1470588235295
    },
    {
      "nature_mutation": "Vente",
      "type_local": "Maison",
      "valeur_fonciere": 272000.0,
      "surface_reelle_bati": 166.0,
      "nombre_pieces_principales": 5.0,
      "surface_terrain": 1304.0,
      "longitude": 5.077246,
      "latitude": 46.344146,
      "code_departement": "01",
      "code_commune": "01236",
      "nom_commune": "Marsonnas",
      "year": 2016,
      "price_m2": 1638.55421686747
    },
    {
      "nature_mutation": "Vente",
      "type_local": "Maison",
      "valeur_fonciere": 272000.0,
      "surface_reelle_bati": 166.0,
      "nombre_pieces_principales": 5.0,
      "surface_terrain": 500.0,
      "longitude": 5.077246,
      "latitude": 46.344146,
      "code_departement": "01",
      "code_commune": "01236",
      "nom_commune": "Marsonnas",
      "year": 2016,
      "price_m2": 1638.55421686747
    },
    {
      "nature_mutation": "Vente",
      "type_local": "Maison",
      "valeur_fonciere": 164000.0,
      "surface_reelle_bati": 89.0,
      "nombre_pieces_principales": 4.0,
      "surface_terrain": 950.0,
      "longitude": 5.131702,
      "latitude": 46.249592,
      "code_departement": "01",
      "code_commune": "01301",
      "nom_commune": "Polliat",
      "year": 2016,
      "price_m2": 1842.6966292134832
    },
    {
      "nature_mutation": "Vente",
      "type_local": "Maison",
      "valeur_fonciere": 57000.0,
      "surface_reelle_bati": 70.0,
      "nombre_pieces_principales": 3.0,
      "surface_terrain": 110.0,
      "longitude": 4.938581,
      "latitude": 46.431047,
      "code_departement": "01",
      "code_commune": "01305",
      "nom_commune": "Pont-de-Vaux",
      "year": 2016,
      "price_m2": 814.2857142857143
    },
    {
      "nature_mutation": "Vente",
      "type_local": "Maison",
      "valeur_fonciere": 57000.0,
      "surface_reelle_bati": 30.0,
      "nombre_pieces_principales": 1.0,
      "surface_terrain": 110.0,
      "longitude": 4.938581,
      "latitude": 46.431047,
      "code_departement": "01",
      "code_commune": "01305",
      "nom_commune": "Pont-de-Vaux",
      "year": 2016,
      "price_m2": 1900.0
    },
    {
      "nature_mutation": "Vente",
      "type_local": "Maison",
      "valeur_fonciere": 180020.0,
      "surface_reelle_bati": 121.0,
      "nombre_pieces_principales": 5.0,
      "surface_terrain": 1660.0,
      "longitude": 5.026605,
      "latitude": 46.472437,
      "code_departement": "01",
      "code_commune": "01437",
      "nom_commune": "Vescours",
      "year": 2016,
      "price_m2": 1487.7685950413222
    },
    {
      "nature_mutation": "Vente",
      "type_local": "Maison",
      "valeur_fonciere": 135000.0,
      "surface_reelle_bati": 89.0,
      "nombre_pieces_principales": 4.0,
      "surface_terrain": 1070.0,
      "longitude": 4.930252,
      "latitude": 46.313141,
      "code_departement": "01",
      "code_commune": "01025",
      "nom_commune": "Bâgé-Dommartin",
      "year": 2016,
      "price_m2": 1516.8539325842696
    },
    {
      "nature_mutation": "Vente",
      "type_local": "Maison",
      "valeur_fonciere": 301000.0,
      "surface_reelle_bati": 130.0,
      "nombre_pieces_principales": 5.0,
      "surface_terrain": 1021.0,
      "longitude": 4.913628,
      "latitude": 46.300332,
      "code_departement": "01",
      "code_commune": "01332",
      "nom_commune": "Saint-André-de-Bâgé",
      "year": 2016,
      "price_m2": 2315.3846153846152
    },
    {
      "nature_mutation": "Vente",
      "type_local": "Maison",
      "valeur_fonciere": 148000.0,
      "surface_reelle_bati": 85.0,
      "nombre_pieces_principales": 2.0,
      "surface_terrain": 805.0,
      "longitude": 4.96127,
      "latitude": 46.270253,
      "code_departement": "01",
      "code_commune": "01343",
      "nom_commune": "Saint-Cyr-sur-Menthon",
      "year": 2016,
      "price_m2": 1741.1764705882354
    },
    {
      "nature_mutation": "Vente",
      "type_local": "Maison",
      "valeur_fonciere": 210000.0,
      "surface_reelle_bati": 98.0,
      "nombre_pieces_principales": 5.0,
      "surface_terrain": 810.0,
      "longitude": 5.208575,
      "latitude": 46.252436,
      "code_departement": "01",
      "code_commune": "01451",
      "nom_commune": "Viriat",
      "year": 2016,
      "price_m2": 2142.8571428571427
    },
    {
      "nature_mutation": "Vente",
      "type_local": "Maison",
      "valeur_fonciere": 80000.0,
      "surface_reelle_bati": 27.0,
      "nombre_pieces_principales": 2.0,
      "surface_terrain": 651.0,
      "longitude": 5.196241,
      "latitude": 46.172801,
      "code_departement": "01",
      "code_commune": "01289",
      "nom_commune": "Péronnas",
      "year": 2016,
      "price_m2": 2962.962962962963
    },
    {
      "nature_mutation": "Vente",
      "type_local": "Appartement",
      "valeur_fonciere": 95000.0,
      "surface_reelle_bati": 54.0,
      "nombre_pieces_principales": 2.0,
      "surface_terrain": null,
      "longitude": 5.215444,
      "latitude": 46.203115,
      "code_departement": "01",
      "code_commune": "01053",
      "nom_commune": "Bourg-en-Bresse",
      "year": 2016,
      "price_m2": 1759.2592592592594
    },
    {
      "nature_mutation": "Vente",
      "type_local": "Appartement",
      "valeur_fonciere": 72000.0,
      "surface_reelle_bati": 77.0,
      "nombre_pieces_principales": 4.0,
      "surface_terrain": null,
      "longitude": 5.232055,
      "latitude": 46.205457,
      "code_departement": "01",
      "code_commune": "01053",
      "nom_commune": "Bourg-en-Bresse",
      "year": 2016,
      "price_m2": 935.0649350649351
    },
    {
      "nature_mutation": "Vente",
      "type_local": "Maison",
      "valeur_fonciere": 100500.0,
      "surface_reelle_bati": 88.0,
      "nombre_pieces_principales": 4.0,
      "surface_terrain": 318.0,
      "longitude": 5.3455,
      "latitude": 46.042633,
      "code_departement": "01",
      "code_commune": "01304",
      "nom_commune": "Pont-d'Ain",
      "year": 2016,
      "price_m2": 1142.0454545454545
    },
    {
      "nature_mutation": "Vente",
      "type_local": "Appartement",
      "valeur_fonciere": 28302.0,
      "surface_reelle_bati": 35.0,
      "nombre_pieces_principales": 2.0,
      "surface_terrain": 86.0,
      "longitude": 5.109813,
      "latitude": 46.401508,
      "code_departement": "01",
      "code_commune": "01367",
      "nom_commune": "Saint-Julien-sur-Reyssouze",
      "year": 2016,
      "price_m2": 808.6285714285714
    },
    {
      "nature_mutation": "Vente",
      "type_local": "Appartement",
      "valeur_fonciere": 28302.0,
      "surface_reelle_bati": 30.0,
      "nombre_pieces_principales": 2.0,
      "surface_terrain": 86.0,
      "longitude": 5.109813,
      "latitude": 46.401508,
      "code_departement": "01",
      "code_commune": "01367",
      "nom_commune": "Saint-Julien-sur-Reyssouze",
      "year": 2016,
      "price_m2": 943.4
    },
    {
      "nature_mutation": "Vente",
      "type_local": "Maison",
      "valeur_fonciere": 460000.0,
      "surface_reelle_bati": 170.0,
      "nombre_pieces_principales": 8.0,
      "surface_terrain": 815.0,
      "longitude": 5.222412,
      "latitude": 46.19941,
      "code_departement": "01",
      "code_commune": "01053",
      "nom_commune": "Bourg-en-Bresse",
      "year": 2016,
      "price_m2": 2705.8823529411766
    },
    {
      "nature_mutation": "Vente",
      "type_local": "Maison",
      "valeur_fonciere": 150000.0,
      "surface_reelle_bati": 99.0,
      "nombre_pieces_principales": 5.0,
      "surface_terrain": 684.0,
      "longitude": null,
      "latitude": null,
      "code_departement": "01",
      "code_commune": "01134",
      "nom_commune": "Crottet",
      "year": 2016,
      "price_m2": 1515.1515151515152
    },
    {
      "nature_mutation": "Vente",
      "type_local": "Maison",
      "valeur_fonciere": 205000.0,
      "surface_reelle_bati": 130.0,
      "nombre_pieces_principales": 6.0,
      "surface_terrain": 408.0,
      "longitude": 5.383599,
      "latitude": 46.139912,
      "code_departement": "01",
      "code_commune": "01245",
      "nom_commune": "Bohas-Meyriat-Rignat",
      "year": 2016,
      "price_m2": 1576.923076923077
    },
    {
      "nature_mutation": "Vente",
      "type_local": "Maison",
      "valeur_fonciere": 90000.0,
      "surface_reelle_bati": 50.0,
      "nombre_pieces_principales": 3.0,
      "surface_terrain": 325.0,
      "longitude": 5.359615,
      "latitude": 46.054485,
      "code_departement": "01",
      "code_commune": "01304",
      "nom_commune": "Pont-d'Ain",
      "year": 2016,
      "price_m2": 1800.0
    },
    {
      "nature_mutation": "Vente",
      "type_local": "Maison",
      "valeur_fonciere": 355500.0,
      "surface_reelle_bati": 140.0,
      "nombre_pieces_principales": 5.0,
      "surface_terrain": 447.0,
      "longitude": null,
      "latitude": null,
      "code_departement": "01",
      "code_commune": "01245",
      "nom_commune": "Bohas-Meyriat-Rignat",
      "year": 2016,
      "price_m2": 2539.285714285714
    },
    {
      "nature_mutation": "Vente",
      "type_local": "Appartement",
      "valeur_fonciere": 77000.0,
      "surface_reelle_bati": 53.0,
      "nombre_pieces_principales": 2.0,
      "surface_terrain": null,
      "longitude": 5.208543,
      "latitude": 46.187709,
      "code_departement": "01",
      "code_commune": "01289",
      "nom_commune": "Péronnas",
      "year": 2016,
      "price_m2": 1452.8301886792453
    },
    {
      "nature_mutation": "Vente",
      "type_local": "Maison",
      "valeur_fonciere": 143250.0,
      "surface_reelle_bati": 126.0,
      "nombre_pieces_principales": 4.0,
      "surface_terrain": 354.0,
      "longitude": 5.381026,
      "latitude": 46.243299,
      "code_departement": "01",
      "code_commune": "01426",
      "nom_commune": "Val-Revermont",
      "year": 2016,
      "price_m2": 1136.904761904762
    },
    {
      "nature_mutation": "Vente",
      "type_local": "Appartement",
      "valeur_fonciere": 115000.0,
      "surface_reelle_bati": 84.0,
      "nombre_pieces_principales": 4.0,
      "surface_terrain": null,
      "longitude": 5.211273,
      "latitude": 46.197596,
      "code_departement": "01",
      "code_commune": "01053",
      "nom_commune": "Bourg-en-Bresse",
      "year": 2016,
      "price_m2": 1369.047619047619
    },
    {
      "nature_mutation": "Vente",
      "type_local": "Maison",
      "valeur_fonciere": 232000.0,
      "surface_reelle_bati": 120.0,
      "nombre_pieces_principales": 5.0,
      "surface_terrain": 1000.0,
      "longitude": 5.14701,
      "latitude": 46.208647,
      "code_departement": "01",
      "code_commune": "01065",
      "nom_commune": "Buellas",
      "year": 2016,
      "price_m2": 1933.3333333333333
    },
    {
      "nature_mutation": "Vente",
      "type_local": "Maison",
      "valeur_fonciere": 232000.0,
      "surface_reelle_bati": 120.0,
      "nombre_pieces_principales": 5.0,
      "surface_terrain": 788.0,
      "longitude": 5.14701,
      "latitude": 46.208647,
      "code_departement": "01",
      "code_commune": "01065",
      "nom_commune": "Buellas",
      "year": 2016,
      "price_m2": 1933.3333333333333
    },
    {
      "nature_mutation": "Vente",
      "type_local": "Maison",
      "valeur_fonciere": 196300.0,
      "surface_reelle_bati": 105.0,
      "nombre_pieces_principales": 5.0,
      "surface_terrain": 848.0,
      "longitude": 5.118787,
      "latitude": 46.195937,
      "code_departement": "01",
      "code_commune": "01264",
      "nom_commune": "Montracol",
      "year": 2016,
      "price_m2": 1869.5238095238096
    },
    {
      "nature_mutation": "Vente",
      "type_local": "Maison",
      "valeur_fonciere": 177220.0,
      "surface_reelle_bati": 145.0,
      "nombre_pieces_principales": 4.0,
      "surface_terrain": 548.0,
      "longitude": 4.941764,
      "latitude": 46.355872,
      "code_departement": "01",
      "code_commune": "01025",
      "nom_commune": "Bâgé-Dommartin",
      "year": 2016,
      "price_m2": 1222.2068965517242
    },
    {
      "nature_mutation": "Vente",
      "type_local": "Maison",
      "valeur_fonciere": 177220.0,
      "surface_reelle_bati": 145.0,
      "nombre_pieces_principales": 4.0,
      "surface_terrain": 500.0,
      "longitude": 4.941764,
      "latitude": 46.355872,
      "code_departement": "01",
      "code_commune": "01025",
      "nom_commune": "Bâgé-Dommartin",
      "year": 2016,
      "price_m2": 1222.2068965517242
    },
    {
      "nature_mutation": "Vente",
      "type_local": "Appartement",
      "valeur_fonciere": 213200.0,
      "surface_reelle_bati": 99.0,
      "nombre_pieces_principales": 4.0,
      "surface_terrain": 1460.0,
      "longitude": 5.245876,
      "latitude": 46.210007,
      "code_departement": "01",
      "code_commune": "01053",
      "nom_commune": "Bourg-en-Bresse",
      "year": 2016,
      "price_m2": 2153.5353535353534
    },
    {
      "nature_mutation": "Vente",
      "type_local": "Maison",
      "valeur_fonciere": 114000.0,
      "surface_reelle_bati": 108.0,
      "nombre_pieces_principales": 2.0,
      "surface_terrain": 686.0,
      "longitude": 5.22572,
      "latitude": 46.237183,
      "code_departement": "01",
      "code_commune": "01451",
      "nom_commune": "Viriat",
      "year": 2016,
      "price_m2": 1055.5555555555557
    },
    {
      "nature_mutation": "Vente",
      "type_local": "Maison",
      "valeur_fonciere": 185000.0,
      "surface_reelle_bati": 91.0,
      "nombre_pieces_principales": 4.0,
      "surface_terrain": 801.0,
      "longitude": 5.11417,
      "latitude": 46.322213,
      "code_departement": "01",
      "code_commune": "01266",
      "nom_commune": "Montrevel-en-Bresse",
      "year": 2016,
      "price_m2": 2032.967032967033
    },
    {
      "nature_mutation": "Vente",
      "type_local": "Maison",
      "valeur_fonciere": 154600.0,
      "surface_reelle_bati": 80.0,
      "nombre_pieces_principales": 3.0,
      "surface_terrain": 260.0,
      "longitude": 5.061936,
      "latitude": 46.396032,
      "code_departement": "01",
      "code_commune": "01364",
      "nom_commune": "Saint-Jean-sur-Reyssouze",
      "year": 2016,
      "price_m2": 1932.5
    },
    {
      "nature_mutation": "Vente",
      "type_local": "Appartement",
      "valeur_fonciere": 147000.0,
      "surface_reelle_bati": 97.0,
      "nombre_pieces_principales": 5.0,
      "surface_terrain": null,
      "longitude": 5.235095,
      "latitude": 46.203684,
      "code_departement": "01",
      "code_commune": "01053",
      "nom_commune": "Bourg-en-Bresse",
      "year": 2016,
      "price_m2": 1515.4639175257732
    },
    {
      "nature_mutation": "Vente",
      "type_local": "Maison",
      "valeur_fonciere": 235000.0,
      "surface_reelle_bati": 150.0,
      "nombre_pieces_principales": 5.0,
      "surface_terrain": 740.0,
      "longitude": 5.207397,
      "latitude": 46.181372,
      "code_departement": "01",
      "code_commune": "01289",
      "nom_commune": "Péronnas",
      "year": 2016,
      "price_m2": 1566.6666666666667
    },
    {
      "nature_mutation": "Vente",
      "type_local": "Appartement",
      "valeur_fonciere": 79000.0,
      "surface_reelle_bati": 67.0,
      "nombre_pieces_principales": 2.0,
      "surface_terrain": null,
      "longitude": 5.212187,
      "latitude": 46.186909,
      "code_departement": "01",
      "code_commune": "01289",
      "nom_commune": "Péronnas",
      "year": 2016,
      "price_m2": 1179.1044776119404
    },
    {
      "nature_mutation": "Vente",
      "type_local": "Maison",
      "valeur_fonciere": 200000.0,
      "surface_reelle_bati": 165.0,
      "nombre_pieces_principales": 4.0,
      "surface_terrain": 447.0,
      "longitude": 5.277177,
      "latitude": 46.039463,
      "code_departement": "01",
      "code_commune": "01314",
      "nom_commune": "Priay",
      "year": 2016,
      "price_m2": 1212.121212121212
    },
    {
      "nature_mutation": "Vente",
      "type_local": "Maison",
      "valeur_fonciere": 40000.0,
      "surface_reelle_bati": 50.0,
      "nombre_pieces_principales": 3.0,
      "surface_terrain": 922.0,
      "longitude": 5.002957,
      "latitude": 46.443847,
      "code_departement": "01",
      "code_commune": "01094",
      "nom_commune": "Chavannes-sur-Reyssouze",
      "year": 2016,
      "price_m2": 800.0
    },
    {
      "nature_mutation": "Vente",
      "type_local": "Maison",
      "valeur_fonciere": 110000.0,
      "surface_reelle_bati": 90.0,
      "nombre_pieces_principales": 3.0,
      "surface_terrain": 314.0,
      "longitude": 5.167345,
      "latitude": 46.188687,
      "code_departement": "01",
      "code_commune": "01385",
      "nom_commune": "Saint-Rémy",
      "year": 2016,
      "price_m2": 1222.2222222222222
    },
    {
      "nature_mutation": "Vente",
      "type_local": "Maison",
      "valeur_fonciere": 110000.0,
      "surface_reelle_bati": 90.0,
      "nombre_pieces_principales": 3.0,
      "surface_terrain": 143.0,
      "longitude": 5.167345,
      "latitude": 46.188687,
      "code_departement": "01",
      "code_commune": "01385",
      "nom_commune": "Saint-Rémy",
      "year": 2016,
      "price_m2": 1222.2222222222222
    },
    {
      "nature_mutation": "Vente",
      "type_local": "Maison",
      "valeur_fonciere": 180200.0,
      "surface_reelle_bati": 88.0,
      "nombre_pieces_principales": 4.0,
      "surface_terrain": 962.0,
      "longitude": 5.001211,
      "latitude": 46.287853,
      "code_departement": "01",
      "code_commune": "01355",
      "nom_commune": "Saint-Genis-sur-Menthon",
      "year": 2016,
      "price_m2": 2047.7272727272727
    },
    {
      "nature_mutation": "Vente",
      "type_local": "Maison",
      "valeur_fonciere": 180200.0,
      "surface_reelle_bati": 88.0,
      "nombre_pieces_principales": 4.0,
      "surface_terrain": 1130.0,
      "longitude": 5.001211,
      "latitude": 46.287853,
      "code_departement": "01",
      "code_commune": "01355",
      "nom_commune": "Saint-Genis-sur-Menthon",
      "year": 2016,
      "price_m2": 2047.7272727272727
    },
    {
      "nature_mutation": "Vente",
      "type_local": "Maison",
      "valeur_fonciere": 191000.0,
      "surface_reelle_bati": 100.0,
      "nombre_pieces_principales": 4.0,
      "surface_terrain": 219.0,
      "longitude": null,
      "latitude": null,
      "code_departement": "01",
      "code_commune": "01134",
      "nom_commune": "Crottet",
      "year": 2016,
      "price_m2": 1910.0
    },
    {
      "nature_mutation": "Vente",
      "type_local": "Maison",
      "valeur_fonciere": 191000.0,
      "surface_reelle_bati": 100.0,
      "nombre_pieces_principales": 4.0,
      "surface_terrain": 693.0,
      "longitude": null,
      "latitude": null,
      "code_departement": "01",
      "code_commune": "01134",
      "nom_commune": "Crottet",
      "year": 2016,
      "price_m2": 1910.0
    },
    {
      "nature_mutation": "Vente",
      "type_local": "Maison",
      "valeur_fonciere": 176500.0,
      "surface_reelle_bati": 79.0,
      "nombre_pieces_principales": 4.0,
      "surface_terrain": null,
      "longitude": 5.274941,
      "latitude": 46.196298,
      "code_departement": "01",
      "code_commune": "01053",
      "nom_commune": "Bourg-en-Bresse",
      "year": 2016,
      "price_m2": 2234.1772151898736
    },
    {
      "nature_mutation": "Vente",
      "type_local": "Appartement",
      "valeur_fonciere": 48500.0,
      "surface_reelle_bati": 27.0,
      "nombre_pieces_principales": 1.0,
      "surface_terrain": null,
      "longitude": 5.224304,
      "latitude": 46.205833,
      "code_departement": "01",
      "code_commune": "01053",
      "nom_commune": "Bourg-en-Bresse",
      "year": 2016,
      "price_m2": 1796.2962962962963
    },
    {
      "nature_mutation": "Vente",
      "type_local": "Maison",
      "valeur_fonciere": 173500.0,
      "surface_reelle_bati": 88.0,
      "nombre_pieces_principales": 4.0,
      "surface_terrain": 933.0,
      "longitude": 5.20327,
      "latitude": 46.203275,
      "code_departement": "01",
      "code_commune": "01344",
      "nom_commune": "Saint-Denis-lès-Bourg",
      "year": 2016,
      "price_m2": 1971.590909090909
    },
    {
      "nature_mutation": "Vente",
      "type_local": "Maison",
      "valeur_fonciere": 271380.0,
      "surface_reelle_bati": 122.0,
      "nombre_pieces_principales": 4.0,
      "surface_terrain": 902.0,
      "longitude": 5.231419,
      "latitude": 46.183431,
      "code_departement": "01",
      "code_commune": "01289",
      "nom_commune": "Péronnas",
      "year": 2016,
      "price_m2": 2224.4262295081967
    },
    {
      "nature_mutation": "Vente",
      "type_local": "Appartement",
      "valeur_fonciere": 130108.0,
      "surface_reelle_bati": 75.0,
      "nombre_pieces_principales": 3.0,
      "surface_terrain": null,
      "longitude": 5.218605,
      "latitude": 46.199627,
      "code_departement": "01",
      "code_commune": "01053",
      "nom_commune": "Bourg-en-Bresse",
      "year": 2016,
      "price_m2": 1734.7733333333333
    },
    {
      "nature_mutation": "Vente",
      "type_local": "Maison",
      "valeur_fonciere": 210000.0,
      "surface_reelle_bati": 92.0,
      "nombre_pieces_principales": 4.0,
      "surface_terrain": 621.0,
      "longitude": 5.075588,
      "latitude": 46.463403,
      "code_departement": "01",
      "code_commune": "01388",
      "nom_commune": "Saint-Trivier-de-Courtes",
      "year": 2016,
      "price_m2": 2282.608695652174
    },
    {
      "nature_mutation": "Vente",
      "type_local": "Maison",
      "valeur_fonciere": 210000.0,
      "surface_reelle_bati": 92.0,
      "nombre_pieces_principales": 4.0,
      "surface_terrain": 463.0,
      "longitude": 5.075588,
      "latitude": 46.463403,
      "code_departement": "01",
      "code_commune": "01388",
      "nom_commune": "Saint-Trivier-de-Courtes",
      "year": 2016,
      "price_m2": 2282.608695652174
    },
    {
      "nature_mutation": "Vente",
      "type_local": "Maison",
      "valeur_fonciere": 165000.0,
      "surface_reelle_bati": 72.0,
      "nombre_pieces_principales": 4.0,
      "surface_terrain": 766.0,
      "longitude": 5.215577,
      "latitude": 46.217275,
      "code_departement": "01",
      "code_commune": "01451",
      "nom_commune": "Viriat",
      "year": 2016,
      "price_m2": 2291.6666666666665
    },
    {
      "nature_mutation": "Vente",
      "type_local": "Appartement",
      "valeur_fonciere": 54000.0,
      "surface_reelle_bati": 44.0,
      "nombre_pieces_principales": 1.0,
      "surface_terrain": null,
      "longitude": 5.222737,
      "latitude": 46.192597,
      "code_departement": "01",
      "code_commune": "01289",
      "nom_commune": "Péronnas",
      "year": 2016,
      "price_m2": 1227.2727272727273
    },
    {
      "nature_mutation": "Vente",
      "type_local": "Maison",
      "valeur_fonciere": 213500.0,
      "surface_reelle_bati": 106.0,
      "nombre_pieces_principales": 5.0,
      "surface_terrain": 580.0,
      "longitude": 5.234677,
      "latitude": 46.217827,
      "code_departement": "01",
      "code_commune": "01053",
      "nom_commune": "Bourg-en-Bresse",
      "year": 2016,
      "price_m2": 2014.1509433962265
    },
    {
      "nature_mutation": "Vente",
      "type_local": "Maison",
      "valeur_fonciere": 213500.0,
      "surface_reelle_bati": 106.0,
      "nombre_pieces_principales": 5.0,
      "surface_terrain": 500.0,
      "longitude": 5.234677,
      "latitude": 46.217827,
      "code_departement": "01",
      "code_commune": "01053",
      "nom_commune": "Bourg-en-Bresse",
      "year": 2016,
      "price_m2": 2014.1509433962265
    },
    {
      "nature_mutation": "Vente",
      "type_local": "Maison",
      "valeur_fonciere": 190800.0,
      "surface_reelle_bati": 111.0,
      "nombre_pieces_principales": 4.0,
      "surface_terrain": 500.0,
      "longitude": 5.171666,
      "latitude": 46.30214,
      "code_departement": "01",
      "code_commune": "01130",
      "nom_commune": "Bresse Vallons",
      "year": 2016,
      "price_m2": 1718.918918918919
    },
    {
      "nature_mutation": "Vente",
      "type_local": "Maison",
      "valeur_fonciere": 190800.0,
      "surface_reelle_bati": 111.0,
      "nombre_pieces_principales": 4.0,
      "surface_terrain": 960.0,
      "longitude": 5.171666,
      "latitude": 46.30214,
      "code_departement": "01",
      "code_commune": "01130",
      "nom_commune": "Bresse Vallons",
      "year": 2016,
      "price_m2": 1718.918918918919
    },
    {
      "nature_mutation": "Vente",
      "type_local": "Appartement",
      "valeur_fonciere": 192800.0,
      "surface_reelle_bati": 128.0,
      "nombre_pieces_principales": 3.0,
      "surface_terrain": null,
      "longitude": 5.224596,
      "latitude": 46.204032,
      "code_departement": "01",
      "code_commune": "01053",
      "nom_commune": "Bourg-en-Bresse",
      "year": 2016,
      "price_m2": 1506.25
    },
    {
      "nature_mutation": "Vente",
      "type_local": "Appartement",
      "valeur_fonciere": 137750.0,
      "surface_reelle_bati": 85.0,
      "nombre_pieces_principales": 5.0,
      "surface_terrain": null,
      "longitude": 5.234141,
      "latitude": 46.196482,
      "code_departement": "01",
      "code_commune": "01053",
      "nom_commune": "Bourg-en-Bresse",
      "year": 2016,
      "price_m2": 1620.5882352941176
    },
    {
      "nature_mutation": "Vente",
      "type_local": "Maison",
      "valeur_fonciere": 336300.0,
      "surface_reelle_bati": 265.0,
      "nombre_pieces_principales": 6.0,
      "surface_terrain": 1672.0,
      "longitude": 4.906087,
      "latitude": 46.363038,
      "code_departement": "01",
      "code_commune": "01231",
      "nom_commune": "Manziat",
      "year": 2016,
      "price_m2": 1269.0566037735848
    },