{
  "dataset_id": "dvf",
  "source_file_location": "data/raw/dvf/year=2019/2019-full.csv.zip",
  "rows": 1072933,
  "columns_count": 13,
  "available_years": [
    2014,
    2015,
    2016,
    2017,
    2018,
    2019,
    2020,
    2021,
    2022,
    2023,
    2024
  ],
  "last_update": null,
  "columns": [
    {
      "key": "nature_mutation",
      "label": "nature mutation",
      "type": "text"
    },
    {
      "key": "type_local",
      "label": "type local",
      "type": "text"
    },
    {
      "key": "valeur_fonciere",
      "label": "valeur fonciere",
      "type": "number"
    },
    {
      "key": "surface_reelle_bati",
      "label": "surface reelle bati",
      "type": "number"
    },
    {
      "key": "nombre_pieces_principales",
      "label": "nombre pieces principales",
      "type": "number"
    },
    {
      "key": "surface_terrain",
      "label": "surface terrain",
      "type": "number"
    },
    {
      "key": "longitude",
      "label": "longitude",
      "type": "number"
    },
    {
      "key": "latitude",
      "label": "latitude",
      "type": "number"
    },
    {
      "key": "code_departement",
      "label": "code departement",
      "type": "text"
    },
    {
      "key": "code_commune",
      "label": "code commune",
      "type": "text"
    },
    {
      "key": "nom_commune",
      "label": "nom commune",
      "type": "text"
    },
    {
      "key": "year",
      "label": "year",
      "type": "number"
    },
    {
      "key": "price_m2",
      "label": "price m2",
      "type": "number"
    }
  ],
  "records": [
    {
      "nature_mutation": "Vente",
      "type_local": "Appartement",
      "valeur_fonciere": 37220.0,
      "surface_reelle_bati": 20.0,
      "nombre_pieces_principales": 1.0,
      "surface_terrain": null,
      "longitude": 5.209562,
      "latitude": 46.19884,
      "code_departement": "01",
      "code_commune": "01053",
      "nom_commune": "Bourg-en-Bresse",
      "year": 2019,
      "price_m2": 1861.0
    },
    {
      "nature_mutation": "Vente",
      "type_local": "Appartement",
      "valeur_fonciere": 185100.0,
      "surface_reelle_bati": 62.0,
      "nombre_pieces_principales": 3.0,
      "surface_terrain": null,
      "longitude": 5.219396,
      "latitude": 46.198766,
      "code_departement": "01",
      "code_commune": "01053",
      "nom_commune": "Bourg-en-Bresse",
      "year": 2019,
      "price_m2": 2985.483870967742
    },
    {
      "nature_mutation": "Vente",
      "type_local": "Maison",
      "valeur_fonciere": 209000.0,
      "surface_reelle_bati": 90.0,
      "nombre_pieces_principales": 4.0,
      "surface_terrain": 940.0,
      "longitude": 5.282104,
      "latitude": 45.999566,
      "code_departement": "01",
      "code_commune": "01314",
      "nom_commune": "Priay",
      "year": 2019,
      "price_m2": 2322.222222222222
    },
    {
      "nature_mutation": "Vente",
      "type_local": "Maison",
      "valeur_fonciere": 134900.0,
      "surface_reelle_bati": 101.0,
      "nombre_pieces_principales": 5.0,
      "surface_terrain": 490.0,
      "longitude": 5.299929,
      "latitude": 46.293278,
      "code_departement": "01",
      "code_commune": "01350",
      "nom_commune": "Saint-Étienne-du-Bois",
      "year": 2019,
      "price_m2": 1335.6435643564357
    },
    {
      "nature_mutation": "Vente",
      "type_local": "Maison",
      "valeur_fonciere": 192000.0,
      "surface_reelle_bati": 88.0,
      "nombre_pieces_principales": 4.0,
      "surface_terrain": 708.0,
      "longitude": 5.174803,
      "latitude": 46.269978,
      "code_departement": "01",
      "code_commune": "01024",
      "nom_commune": "Attignat",
      "year": 2019,
      "price_m2": 2181.818181818182
    },
    {
      "nature_mutation": "Vente",
      "type_local": "Maison",
      "valeur_fonciere": 45000.0,
      "surface_reelle_bati": 39.0,
      "nombre_pieces_principales": 2.0,
      "surface_terrain": 631.0,
      "longitude": 5.452079,
      "latitude": 46.205294,
      "code_departement": "01",
      "code_commune": "01106",
      "nom_commune": "Cize",
      "year": 2019,
      "price_m2": 1153.8461538461538
    },
    {
      "nature_mutation": "Vente",
      "type_local": "Appartement",
      "valeur_fonciere": 65000.0,
      "surface_reelle_bati": 69.0,
      "nombre_pieces_principales": 3.0,
      "surface_terrain": null,
      "longitude": 5.220604,
      "latitude": 46.193389,
      "code_departement": "01",
      "code_commune": "01053",
      "nom_commune": "Bourg-en-Bresse",
      "year": 2019,
      "price_m2": 942.0289855072464
    },
    {
      "nature_mutation": "Vente",
      "type_local": "Appartement",
      "valeur_fonciere": 37000.0,
      "surface_reelle_bati": 39.0,
      "nombre_pieces_principales": 1.0,
      "surface_terrain": null,
      "longitude": 5.219034,
      "latitude": 46.211043,
      "code_departement": "01",
      "code_commune": "01053",
      "nom_commune": "Bourg-en-Bresse",
      "year": 2019,
      "price_m2": 948.7179487179487
    },
    {
      "nature_mutation": "Vente",
      "type_local": "Maison",
      "valeur_fonciere": 116000.0,
      "surface_reelle_bati": 100.0,
      "nombre_pieces_principales": 1.0,
      "surface_terrain": 2103.0,
      "longitude": 5.118903,
      "latitude": 46.438805,
      "code_departement": "01",
      "code_commune": "01230",
      "nom_commune": "Mantenay-Montlin",
      "year": 2019,
      "price_m2": 1160.0
    },
    {
      "nature_mutation": "Vente",
      "type_local": "Maison",
      "valeur_fonciere": 266000.0,
      "surface_reelle_bati": 115.0,
      "nombre_pieces_principales": 4.0,
      "surface_terrain": 1067.0,
      "longitude": 5.112068,
      "latitude": 46.321856,
      "code_departement": "01",
      "code_commune": "01266",
      "nom_commune": "Montrevel-en-Bresse",
      "year": 2019,
      "price_m2": 2313.0434782608695
    },
    {
      "nature_mutation": "Vente",
      "type_local": "Maison",
      "valeur_fonciere": 138100.0,
      "surface_reelle_bati": 99.0,
      "nombre_pieces_principales": 4.0,
      "surface_terrain": 1500.0,
      "longitude": 5.103396,
      "latitude": 46.468145,
      "code_departement": "01",
      "code_commune": "01128",
      "nom_commune": "Courtes",
      "year": 2019,
      "price_m2": 1394.949494949495
    },
    {
      "nature_mutation": "Vente",
      "type_local": "Maison",
      "valeur_fonciere": 207000.0,
      "surface_reelle_bati": 123.0,
      "nombre_pieces_principales": 4.0,
      "surface_terrain": 1073.0,
      "longitude": 5.135043,
      "latitude": 46.180908,
      "code_departement": "01",
      "code_commune": "01264",
      "nom_commune": "Montracol",
      "year": 2019,
      "price_m2": 1682.9268292682927
    },
    {
      "nature_mutation": "Vente",
      "type_local": "Appartement",
      "valeur_fonciere": 75000.0,
      "surface_reelle_bati": 53.0,
      "nombre_pieces_principales": 2.0,
      "surface_terrain": null,
      "longitude": 5.266068,
      "latitude": 46.144559,
      "code_departement": "01",
      "code_commune": "01069",
      "nom_commune": "Certines",
      "year": 2019,
      "price_m2": 1415.0943396226414
    },
    {
      "nature_mutation": "Vente",
      "type_local": "Appartement",
      "valeur_fonciere": 190000.0,
      "surface_reelle_bati": 91.0,
      "nombre_pieces_principales": 4.0,
      "surface_terrain": null,
      "longitude": 5.238679,
      "latitude": 46.200688,
      "code_departement": "01",
      "code_commune": "01053",
      "nom_commune": "Bourg-en-Bresse",
      "year": 2019,
      "price_m2": 2087.912087912088
    },
    {
      "nature_mutation": "Vente",
      "type_local": "Appartement",
      "valeur_fonciere": 583000.0,
      "surface_reelle_bati": 84.0,
      "nombre_pieces_principales": 4.0,
      "surface_terrain": 1002.0,
      "longitude": 5.20959,
      "latitude": 46.190458,
      "code_departement": "01",
      "code_commune": "01289",
      "nom_commune": "Péronnas",
      "year": 2019,
      "price_m2": 6940.476190476191
    },
    {
      "nature_mutation": "Vente",
      "type_local": "Appartement",
      "valeur_fonciere": 583000.0,
      "surface_reelle_bati": 84.0,
      "nombre_pieces_principales": 4.0,
      "surface_terrain": 1002.0,
      "longitude": 5.20959,
      "latitude": 46.190458,
      "code_departement": "01",
      "code_commune": "01289",
      "nom_commune": "Péronnas",
      "year": 2019,
      "price_m2": 6940.476190476191
    },
    {
      "nature_mutation": "Vente",
      "type_local": "Appartement",
      "valeur_fonciere": 583000.0,
      "surface_reelle_bati": 84.0,
      "nombre_pieces_principales": 4.0,
      "surface_terrain": 1002.0,
      "longitude": 5.20959,
      "latitude": 46.190458,
      "code_departement": "01",
      "code_commune": "01289",
      "nom_commune": "Péronnas",
      "year": 2019,
      "price_m2": 6940.476190476191
    },
    {
      "nature_mutation": "Vente",
      "type_local": "Appartement",
      "valeur_fonciere": 583000.0,
      "surface_reelle_bati": 84.0,
      "nombre_pieces_principales": 4.0,
      "surface_terrain": 619.0,
      "longitude": 5.20959,
      "latitude": 46.190458,
      "code_departement": "01",
      "code_commune": "01289",
      "nom_commune": "Péronnas",
      "year": 2019,
      "price_m2": 6940.476190476191
    },
    {
      "nature_mutation": "Vente",
      "type_local": "Appartement",
      "valeur_fonciere": 583000.0,
      "surface_reelle_bati": 84.0,
      "nombre_pieces_principales": 4.0,
      "surface_terrain": 619.0,
      "longitude": 5.20959,
      "latitude": 46.190458,
      "code_departement": "01",
      "code_commune": "01289",
      "nom_commune": "Péronnas",
      "year": 2019,
      "price_m2": 6940.476190476191
    },
    {
      "nature_mutation": "Vente",
      "type_local": "Appartement",
      "valeur_fonciere": 583000.0,
      "surface_reelle_bati": 84.0,
      "nombre_pieces_principales": 4.0,
      "surface_terrain": 619.0,
      "longitude": 5.20959,
      "latitude": 46.190458,
      "code_departement": "01",
      "code_commune": "01289",
      "nom_commune": "Péronnas",
      "year": 2019,
      "price_m2": 6940.476190476191
    },
    {
      "nature_mutation": "Vente",
      "type_local": "Appartement",
      "valeur_fonciere": 583000.0,
      "surface_reelle_bati": 84.0,
      "nombre_pieces_principales": 4.0,
      "surface_terrain": 619.0,
      "longitude": 5.20959,
      "latitude": 46.190458,
      "code_departement": "01",
      "code_commune": "01289",
      "nom_commune": "Péronnas",
      "year": 2019,
      "price_m2": 6940.476190476191
    },
    {
      "nature_mutation": "Vente",
      "type_local": "Appartement",
      "valeur_fonciere": 583000.0,
      "surface_reelle_bati": 84.0,
      "nombre_pieces_principales": 4.0,
      "surface_terrain": 1002.0,
      "longitude": 5.20959,
      "latitude": 46.190458,
      "code_departement": "01",
      "code_commune": "01289",
      "nom_commune": "Péronnas",
      "year": 2019,
      "price_m2": 6940.476190476191
    },
    {
      "nature_mutation": "Vente",
      "type_local": "Appartement",
      "valeur_fonciere": 583000.0,
      "surface_reelle_bati": 84.0,
      "nombre_pieces_principales": 4.0,
      "surface_terrain": 1002.0,
      "longitude": 5.20959,
      "latitude": 46.190458,
      "code_departement": "01",
      "code_commune": "01289",
      "nom_commune": "Péronnas",
      "year": 2019,
      "price_m2": 6940.476190476191
    },
    {
      "nature_mutation": "Vente",
      "type_local": "Appartement",
      "valeur_fonciere": 583000.0,
      "surface_reelle_bati": 84.0,
      "nombre_pieces_principales": 4.0,
      "surface_terrain": 619.0,
      "longitude": 5.20959,
      "latitude": 46.190458,
      "code_departement": "01",
      "code_commune": "01289",
      "nom_commune": "Péronnas",
      "year": 2019,
      "price_m2": 6940.476190476191
    },
    {
      "nature_mutation": "Vente",
      "type_local": "Appartement",
      "valeur_fonciere": 583000.0,
      "surface_reelle_bati": 84.0,
      "nombre_pieces_principales": 4.0,
      "surface_terrain": 1002.0,
      "longitude": 5.20959,
      "latitude": 46.190458,
      "code_departement": "01",
      "code_commune": "01289",
      "nom_commune": "Péronnas",
      "year": 2019,
      "price_m2": 6940.476190476191
    },
    {
      "nature_mutation": "Vente",
      "type_local": "Appartement",
      "valeur_fonciere": 583000.0,
      "surface_reelle_bati": 84.0,
      "nombre_pieces_principales": 4.0,
      "surface_terrain": 619.0,
      "longitude": 5.20959,
      "latitude": 46.190458,
      "code_departement": "01",
      "code_commune": "01289",
      "nom_commune": "Péronnas",
      "year": 2019,
      "price_m2": 6940.476190476191
    },
    {
      "nature_mutation": "Vente",
      "type_local": "Maison",
      "valeur_fonciere": 235000.0,
      "surface_reelle_bati": 196.0,
      "nombre_pieces_principales": 9.0,
      "surface_terrain": 388.0,
      "longitude": 5.226882,
      "latitude": 46.189391,
      "code_departement": "01",
      "code_commune": "01053",
      "nom_commune": "Bourg-en-Bresse",
      "year": 2019,
      "price_m2": 1198.9795918367347
    },
    {
      "nature_mutation": "Vente",
      "type_local": "Maison",
      "valeur_fonciere": 140000.0,
      "surface_reelle_bati": 73.0,
      "nombre_pieces_principales": 4.0,
      "surface_terrain": 1116.0,
      "longitude": 5.2284,
      "latitude": 46.163472,
      "code_departement": "01",
      "code_commune": "01289",
      "nom_commune": "Péronnas",
      "year": 2019,
      "price_m2": 1917.8082191780823
    },
    {
      "nature_mutation": "Vente",
      "type_local": "Maison",
      "valeur_fonciere": 106000.0,
      "surface_reelle_bati": 73.0,
      "nombre_pieces_principales": 4.0,
      "surface_terrain": 825.0,
      "longitude": 5.228295,
      "latitude": 46.163689,
      "code_departement": "01",
      "code_commune": "01289",
      "nom_commune": "Péronnas",
      "year": 2019,
      "price_m2": 1452.054794520548
    },
    {
      "nature_mutation": "Vente",
      "type_local": "Appartement",
      "valeur_fonciere": 84000.0,
      "surface_reelle_bati": 67.0,
      "nombre_pieces_principales": 3.0,
      "surface_terrain": null,
      "longitude": 5.208543,
      "latitude": 46.187709,
      "code_departement": "01",
      "code_commune": "01289",
      "nom_commune": "Péronnas",
      "year": 2019,
      "price_m2": 1253.7313432835822
    },
    {
      "nature_mutation": "Vente",
      "type_local": "Maison",
      "valeur_fonciere": 200000.0,
      "surface_reelle_bati": 103.0,
      "nombre_pieces_principales": 5.0,
      "surface_terrain": 860.0,
      "longitude": 5.199277,
      "latitude": 46.208825,
      "code_departement": "01",
      "code_commune": "01344",
      "nom_commune": "Saint-Denis-lès-Bourg",
      "year": 2019,
      "price_m2": 1941.7475728155339
    },
    {
      "nature_mutation": "Vente",
      "type_local": "Maison",
      "valeur_fonciere": 172750.0,
      "surface_reelle_bati": 132.0,
      "nombre_pieces_principales": 5.0,
      "surface_terrain": 1000.0,
      "longitude": 4.948406,
      "latitude": 46.447862,
      "code_departement": "01",
      "code_commune": "01337",
      "nom_commune": "Saint-Bénigne",
      "year": 2019,
      "price_m2": 1308.7121212121212
    },
    {
      "nature_mutation": "Vente",
      "type_local": "Maison",
      "valeur_fonciere": 172750.0,
      "surface_reelle_bati": 132.0,
      "nombre_pieces_principales": 5.0,
      "surface_terrain": 1776.0,
      "longitude": 4.948406,
      "latitude": 46.447862,
      "code_departement": "01",
      "code_commune": "01337",
      "nom_commune": "Saint-Bénigne",
      "year": 2019,
      "price_m2": 1308.7121212121212
    },
    {
      "nature_mutation": "Vente",
      "type_local": "Appartement",
      "valeur_fonciere": 95000.0,
      "surface_reelle_bati": 72.0,
      "nombre_pieces_principales": 3.0,
      "surface_terrain": null,
      "longitude": 5.23117,
      "latitude": 46.201275,
      "code_departement": "01",
      "code_commune": "01053",
      "nom_commune": "Bourg-en-Bresse",
      "year": 2019,
      "price_m2": 1319.4444444444443
    },
    {
      "nature_mutation": "Vente",
      "type_local": "Appartement",
      "valeur_fonciere": 82000.0,
      "surface_reelle_bati": 74.0,
      "nombre_pieces_principales": 4.0,
      "surface_terrain": null,
      "longitude": 5.238636,
      "latitude": 46.192321,
      "code_departement": "01",
      "code_commune": "01053",
      "nom_commune": "Bourg-en-Bresse",
      "year": 2019,
      "price_m2": 1108.1081081081081
    },
    {
      "nature_mutation": "Vente",
      "type_local": "Appartement",
      "valeur_fonciere": 133000.0,
      "surface_reelle_bati": 77.0,
      "nombre_pieces_principales": 4.0,
      "surface_terrain": null,
      "longitude": 5.238345,
      "latitude": 46.190634,
      "code_departement": "01",
      "code_commune": "01053",
      "nom_commune": "Bourg-en-Bresse",
      "year": 2019,
      "price_m2": 1727.2727272727273
    },
    {
      "nature_mutation": "Vente",
      "type_local": "Appartement",
      "valeur_fonciere": 102000.0,
      "surface_reelle_bati": 52.0,
      "nombre_pieces_principales": 2.0,
      "surface_terrain": null,
      "longitude": 5.245138,
      "latitude": 46.189215,
      "code_departement": "01",
      "code_commune": "01053",
      "nom_commune": "Bourg-en-Bresse",
      "year": 2019,
      "price_m2": 1961.5384615384614
    },
    {
      "nature_mutation": "Vente",
      "type_local": "Appartement",
      "valeur_fonciere": 390000.0,
      "surface_reelle_bati": 46.0,
      "nombre_pieces_principales": 2.0,
      "surface_terrain": 1060.0,
      "longitude": 5.21336,
      "latitude": 46.19381,
      "code_departement": "01",
      "code_commune": "01053",
      "nom_commune": "Bourg-en-Bresse",
      "year": 2019,
      "price_m2": 8478.260869565218
    },
    {
      "nature_mutation": "Vente",
      "type_local": "Appartement",
      "valeur_fonciere": 390000.0,
      "surface_reelle_bati": 126.0,
      "nombre_pieces_principales": 6.0,
      "surface_terrain": 1060.0,
      "longitude": 5.21336,
      "latitude": 46.19381,
      "code_departement": "01",
      "code_commune": "01053",
      "nom_commune": "Bourg-en-Bresse",
      "year": 2019,
      "price_m2": 3095.2380952380954
    },
    {
      "nature_mutation": "Vente",
      "type_local": "Appartement",
      "valeur_fonciere": 108000.0,
      "surface_reelle_bati": 43.0,
      "nombre_pieces_principales": 2.0,
      "surface_terrain": null,
      "longitude": 5.24139,
      "latitude": 46.192876,
      "code_departement": "01",
      "code_commune": "01053",
      "nom_commune": "Bourg-en-Bresse",
      "year": 2019,
      "price_m2": 2511.6279069767443
    },
    {
      "nature_mutation": "Vente",
      "type_local": "Maison",
      "valeur_fonciere": 214500.0,
      "surface_reelle_bati": 108.0,
      "nombre_pieces_principales": 5.0,
      "surface_terrain": 342.0,
      "longitude": 5.254649,
      "latitude": 46.210095,
      "code_departement": "01",
      "code_commune": "01053",
      "nom_commune": "Bourg-en-Bresse",
      "year": 2019,
      "price_m2": 1986.111111111111
    },
    {
      "nature_mutation": "Vente",
      "type_local": "Maison",
      "valeur_fonciere": 135000.0,
      "surface_reelle_bati": 48.0,
      "nombre_pieces_principales": 2.0,
      "surface_terrain": 935.0,
      "longitude": 4.864207,
      "latitude": 46.227445,
      "code_departement": "01",
      "code_commune": "01136",
      "nom_commune": "Cruzilles-lès-Mépillat",
      "year": 2019,
      "price_m2": 2812.5
    },
    {
      "nature_mutation": "Vente",
      "type_local": "Appartement",
      "valeur_fonciere": 87000.0,
      "surface_reelle_bati": 81.0,
      "nombre_pieces_principales": 3.0,
      "surface_terrain": null,
      "longitude": 4.843259,
      "latitude": 46.306535,
      "code_departement": "01",
      "code_commune": "01370",
      "nom_commune": "Saint-Laurent-sur-Saône",
      "year": 2019,
      "price_m2": 1074.0740740740741
    },
    {
      "nature_mutation": "Vente",
      "type_local": "Maison",
      "valeur_fonciere": 153000.0,
      "surface_reelle_bati": 75.0,
      "nombre_pieces_principales": 3.0,
      "surface_terrain": 965.0,
      "longitude": 4.878024,
      "latitude": 46.338792,
      "code_departement": "01",
      "code_commune": "01159",
      "nom_commune": "Feillens",
      "year": 2019,
      "price_m2": 2040.0
    },
    {
      "nature_mutation": "Vente",
      "type_local": "Appartement",
      "valeur_fonciere": 130000.0,
      "surface_reelle_bati": 72.0,
      "nombre_pieces_principales": 3.0,
      "surface_terrain": null,
      "longitude": 4.874366,
      "latitude": 46.312521,
      "code_departement": "01",
      "code_commune": "01320",
      "nom_commune": "Replonges",
      "year": 2019,
      "price_m2": 1805.5555555555557
    },
    {
      "nature_mutation": "Vente",
      "type_local": "Maison",
      "valeur_fonciere": 146500.0,
      "surface_reelle_bati": 107.0,
      "nombre_pieces_principales": 4.0,
      "surface_terrain": null,
      "longitude": 4.878905,
      "latitude": 46.302621,
      "code_departement": "01",
      "code_commune": "01320",
      "nom_commune": "Replonges",
      "year": 2019,
      "price_m2": 1369.1588785046729
    },
    {
      "nature_mutation": "Vente",
      "type_local": "Maison",
      "valeur_fonciere": 223000.0,
      "surface_reelle_bati": 116.0,
      "nombre_pieces_principales": 5.0,
      "surface_terrain": 558.0,
      "longitude": 4.94185,
      "latitude": 46.318119,
      "code_departement": "01",
      "code_commune": "01025",
      "nom_commune": "Bâgé-Dommartin",
      "year": 2019,
      "price_m2": 1922.4137931034484
    },
    {
      "nature_mutation": "Vente",
      "type_local": "Maison",
      "valeur_fonciere": 223000.0,
      "surface_reelle_bati": 116.0,
      "nombre_pieces_principales": 5.0,
      "surface_terrain": 500.0,
      "longitude": 4.94185,
      "latitude": 46.318119,
      "code_departement": "01",
      "code_commune": "01025",
      "nom_commune": "Bâgé-Dommartin",
      "year": 2019,
      "price_m2": 1922.4137931034484
    },
    {
      "nature_mutation": "Vente",
      "type_local": "Maison",
      "valeur_fonciere": 107000.0,
      "surface_reelle_bati": 74.0,
      "nombre_pieces_principales": 3.0,
      "surface_terrain": null,
      "longitude": 4.954118,
      "latitude": 46.312712,
      "code_departement": "01",
      "code_commune": "01025",
      "nom_commune": "Bâgé-Dommartin",
      "year": 2019,
      "price_m2": 1445.945945945946
    },
    {
      "nature_mutation": "Vente",
      "type_local": "Maison",
      "valeur_fonciere": 150000.0,
      "surface_reelle_bati": 85.0,
      "nombre_pieces_principales": 4.0,
      "surface_terrain": 885.0,
      "longitude": 4.899472,
      "latitude": 46.368885,
      "code_departement": "01",
      "code_commune": "01231",
      "nom_commune": "Manziat",
      "year": 2019,
      "price_m2": 1764.7058823529412
    },
    {
      "nature_mutation": "Vente",
      "type_local": "Maison",
      "valeur_fonciere": 133100.0,
      "surface_reelle_bati": 87.0,
      "nombre_pieces_principales": 4.0,
      "surface_terrain": 710.0,
      "longitude": 4.90766,
      "latitude": 46.407034,
      "code_departement": "01",
      "code_commune": "01057",
      "nom_commune": "Boz",
      "year": 2019,
      "price_m2": 1529.8850574712644
    },
    {
      "nature_mutation": "Vente",
      "type_local": "Maison",
      "valeur_fonciere": 130800.0,
      "surface_reelle_bati": 85.0,
      "nombre_pieces_principales": 4.0,
      "surface_terrain": 932.0,
      "longitude": 4.945996,
      "latitude": 46.434519,
      "code_departement": "01",
      "code_commune": "01305",
      "nom_commune": "Pont-de-Vaux",
      "year": 2019,
      "price_m2": 1538.8235294117646
    },
    {
      "nature_mutation": "Vente",
      "type_local": "Appartement",
      "valeur_fonciere": 36980.0,
      "surface_reelle_bati": 29.0,
      "nombre_pieces_principales": 2.0,
      "surface_terrain": null,
      "longitude": 5.336915,
      "latitude": 46.048898,
      "code_departement": "01",
      "code_commune": "01304",
      "nom_commune": "Pont-d'Ain",
      "year": 2019,
      "price_m2": 1275.1724137931035
    },
    {
      "nature_mutation": "Vente",
      "type_local": "Maison",
      "valeur_fonciere": 266140.0,
      "surface_reelle_bati": 153.0,
      "nombre_pieces_principales": 4.0,
      "surface_terrain": 600.0,
      "longitude": 4.969859,
      "latitude": 46.271549,
      "code_departement": "01",
      "code_commune": "01343",
      "nom_commune": "Saint-Cyr-sur-Menthon",
      "year": 2019,
      "price_m2": 1739.4771241830065
    },
    {
      "nature_mutation": "Vente",
      "type_local": "Maison",
      "valeur_fonciere": 266140.0,
      "surface_reelle_bati": 153.0,
      "nombre_pieces_principales": 4.0,
      "surface_terrain": 1032.0,
      "longitude": 4.969859,
      "latitude": 46.271549,
      "code_departement": "01",
      "code_commune": "01343",
      "nom_commune": "Saint-Cyr-sur-Menthon",
      "year": 2019,
      "price_m2": 1739.4771241830065
    },
    {
      "nature_mutation": "Vente",
      "type_local": "Maison",
      "valeur_fonciere": 55000.0,
      "surface_reelle_bati": 55.0,
      "nombre_pieces_principales": 2.0,
      "surface_terrain": 30.0,
      "longitude": 4.888295,
      "latitude": 46.263535,
      "code_departement": "01",
      "code_commune": "01306",
      "nom_commune": "Pont-de-Veyle",
      "year": 2019,
      "price_m2": 1000.0
    },
    {
      "nature_mutation": "Vente",
      "type_local": "Appartement",
      "valeur_fonciere": 84000.0,
      "surface_reelle_bati": 58.0,
      "nombre_pieces_principales": 2.0,
      "surface_terrain": null,
      "longitude": 5.237075,
      "latitude": 46.201438,
      "code_departement": "01",
      "code_commune": "01053",
      "nom_commune": "Bourg-en-Bresse",
      "year": 2019,
      "price_m2": 1448.2758620689656
    },
    {
      "nature_mutation": "Vente",
      "type_local": "Appartement",
      "valeur_fonciere": 37500.0,
      "surface_reelle_bati": 47.0,
      "nombre_pieces_principales": 1.0,
      "surface_terrain": null,
      "longitude": 5.226718,
      "latitude": 46.214484,
      "code_departement": "01",
      "code_commune": "01053",
      "nom_commune": "Bourg-en-Bresse",
      "year": 2019,
      "price_m2": 797.8723404255319
    },
    {
      "nature_mutation": "Vente",
      "type_local": "Maison",
      "valeur_fonciere": 198700.0,
      "surface_reelle_bati": 116.0,
      "nombre_pieces_principales": 4.0,
      "surface_terrain": 825.0,
      "longitude": 5.296935,
      "latitude": 46.369491,
      "code_departement": "01",
      "code_commune": "01296",
      "nom_commune": "Pirajoux",
      "year": 2019,
      "price_m2": 1712.9310344827586
    },
    {
      "nature_mutation": "Vente",
      "type_local": "Maison",
      "valeur_fonciere": 285080.0,
      "surface_reelle_bati": 111.0,
      "nombre_pieces_principales": 4.0,
      "surface_terrain": 715.0,
      "longitude": 5.286446,
      "latitude": 46.181818,
      "code_departement": "01",
      "code_commune": "01369",
      "nom_commune": "Saint-Just",
      "year": 2019,
      "price_m2": 2568.288288288288
    },
    {
      "nature_mutation": "Vente",
      "type_local": "Maison",
      "valeur_fonciere": 192950.0,
      "surface_reelle_bati": 182.0,
      "nombre_pieces_principales": 7.0,
      "surface_terrain": 1349.0,
      "longitude": 5.261354,
      "latitude": 46.409742,
      "code_departement": "01",
      "code_commune": "01029",
      "nom_commune": "Beaupont",
      "year": 2019,
      "price_m2": 1060.1648351648353
    },
    {
      "nature_mutation": "Vente",
      "type_local": "Appartement",
      "valeur_fonciere": 123600.0,
      "surface_reelle_bati": 96.0,
      "nombre_pieces_principales": 4.0,
      "surface_terrain": null,
      "longitude": 5.122608,
      "latitude": 46.33764,
      "code_departement": "01",
      "code_commune": "01266",
      "nom_commune": "Montrevel-en-Bresse",
      "year": 2019,
      "price_m2": 1287.5
    },
    {
      "nature_mutation": "Vente",
      "type_local": "Appartement",
      "valeur_fonciere": 128900.0,
      "surface_reelle_bati": 90.0,
      "nombre_pieces_principales": 3.0,
      "surface_terrain": null,
      "longitude": 5.219338,
      "latitude": 46.200303,
      "code_departement": "01",
      "code_commune": "01053",
      "nom_commune": "Bourg-en-Bresse",
      "year": 2019,
      "price_m2": 1432.2222222222222
    },
    {
      "nature_mutation": "Vente",
      "type_local": "Maison",
      "valeur_fonciere": 172000.0,
      "surface_reelle_bati": 110.0,
      "nombre_pieces_principales": 3.0,
      "surface_terrain": 1365.0,
      "longitude": 5.345618,
      "latitude": 46.118651,
      "code_departement": "01",
      "code_commune": "01374",
      "nom_commune": "Saint-Martin-du-Mont",
      "year": 2019,
      "price_m2": 1563.6363636363637
    },
    {
      "nature_mutation": "Vente",
      "type_local": "Maison",
      "valeur_fonciere": 176450.0,
      "surface_reelle_bati": 100.0,
      "nombre_pieces_principales": 2.0,
      "surface_terrain": 709.0,
      "longitude": 5.445015,
      "latitude": 46.310413,
      "code_departement": "01",
      "code_commune": "01095",
      "nom_commune": "Nivigne et Suran",
      "year": 2019,
      "price_m2": 1764.5
    },
    {
      "nature_mutation": "Vente",
      "type_local": "Maison",
      "valeur_fonciere": 156000.0,
      "surface_reelle_bati": 460.0,
      "nombre_pieces_principales": 7.0,
      "surface_terrain": 578.0,
      "longitude": 5.347548,
      "latitude": 46.053805,
      "code_departement": "01",
      "code_commune": "01304",
      "nom_commune": "Pont-d'Ain",
      "year": 2019,
      "price_m2": 339.1304347826087
    },
    {
      "nature_mutation": "Vente",
      "type_local": "Maison",
      "valeur_fonciere": 60000.0,
      "surface_reelle_bati": 70.0,
      "nombre_pieces_principales": 4.0,
      "surface_terrain": 184.0,
      "longitude": 5.31631,
      "latitude": 46.141275,
      "code_departement": "01",
      "code_commune": "01422",
      "nom_commune": "Tossiat",
      "year": 2019,
      "price_m2": 857.1428571428571
    },
    {
      "nature_mutation": "Vente",
      "type_local": "Maison",
      "valeur_fonciere": 300000.0,
      "surface_reelle_bati": 270.0,
      "nombre_pieces_principales": 6.0,
      "surface_terrain": 19009.0,
      "longitude": 5.126437,
      "latitude": 46.246387,
      "code_departement": "01",
      "code_commune": "01301",
      "nom_commune": "Polliat",
      "year": 2019,
      "price_m2": 1111.111111111111
    },
    {
      "nature_mutation": "Vente",
      "type_local": "Maison",
      "valeur_fonciere": 196900.0,
      "surface_reelle_bati": 108.0,
      "nombre_pieces_principales": 3.0,
      "surface_terrain": 500.0,
      "longitude": 5.219754,
      "latitude": 46.189813,
      "code_departement": "01",
      "code_commune": "01289",
      "nom_commune": "Péronnas",
      "year": 2019,
      "price_m2": 1823.148148148148
    },
    {
      "nature_mutation": "Vente",
      "type_local": "Maison",
      "valeur_fonciere": 196900.0,
      "surface_reelle_bati": 108.0,
      "nombre_pieces_principales": 3.0,
      "surface_terrain": 745.0,
      "longitude": 5.219754,
      "latitude": 46.189813,
      "code_departement": "01",
      "code_commune": "01289",
      "nom_commune": "Péronnas",
      "year": 2019,
      "price_m2": 1823.148148148148
    },
    {
      "nature_mutation": "Vente",
      "type_local": "Maison",
      "valeur_fonciere": 240000.0,
      "surface_reelle_bati": 73.0,
      "nombre_pieces_principales": 3.0,
      "surface_terrain": 893.0,
      "longitude": 5.239281,
      "latitude": 46.186728,
      "code_departement": "01",
      "code_commune": "01053",
      "nom_commune": "Bourg-en-Bresse",
      "year": 2019,
      "price_m2": 3287.671232876712
    },
    {
      "nature_mutation": "Vente",
      "type_local": "Maison",
      "valeur_fonciere": 240000.0,
      "surface_reelle_bati": 73.0,
      "nombre_pieces_principales": 3.0,
      "surface_terrain": 1612.0,
      "longitude": 5.239281,
      "latitude": 46.186728,
      "code_departement": "01",
      "code_commune": "01053",
      "nom_commune": "Bourg-en-Bresse",
      "year": 2019,
      "price_m2": 3287.671232876712
    },
    {
      "nature_mutation": "Vente",
      "type_local": "Appartement",
      "valeur_fonciere": 136310.0,
      "surface_reelle_bati": 65.0,
      "nombre_pieces_principales": 3.0,
      "surface_terrain": null,
      "longitude": 5.22269,
      "latitude": 46.209154,
      "code_departement": "01",
      "code_commune": "01053",
      "nom_commune": "Bourg-en-Bresse",
      "year": 2019,
      "price_m2": 2097.076923076923
    },
    {
      "nature_mutation": "Vente",
      "type_local": "Appartement",
      "valeur_fonciere": 198000.0,
      "surface_reelle_bati": 50.0,
      "nombre_pieces_principales": 2.0,
      "surface_terrain": 377.0,
      "longitude": 5.218235,
      "latitude": 46.197761,
      "code_departement": "01",
      "code_commune": "01053",
      "nom_commune": "Bourg-en-Bresse",
      "year": 2019,
      "price_m2": 3960.0
    },
    {
      "nature_mutation": "Vente",
      "type_local": "Appartement",
      "valeur_fonciere": 198000.0,
      "surface_reelle_bati": 41.0,
      "nombre_pieces_principales": 2.0,
      "surface_terrain": 377.0,
      "longitude": 5.218235,
      "latitude": 46.197761,
      "code_departement": "01",
      "code_commune": "01053",
      "nom_commune": "Bourg-en-Bresse",
      "year": 2019,
      "price_m2": 4829.268292682927
    },
    {
      "nature_mutation": "Vente",
      "type_local": "Appartement",
      "valeur_fonciere": 198000.0,
      "surface_reelle_bati": 66.0,
      "nombre_pieces_principales": 2.0,
      "surface_terrain": 377.0,
      "longitude": 5.218235,
      "latitude": 46.197761,
      "code_departement": "01",
      "code_commune": "01053",
      "nom_commune": "Bourg-en-Bresse",
      "year": 2019,
      "price_m2": 3000.0
    },
    {
      "nature_mutation": "Vente",
      "type_local": "Maison",
      "valeur_fonciere": 151125.0,
      "surface_reelle_bati": 83.0,
      "nombre_pieces_principales": 3.0,
      "surface_terrain": 578.0,
      "longitude": 5.2095,
      "latitude": 46.196206,
      "code_departement": "01",
      "code_commune": "01053",
      "nom_commune": "Bourg-en-Bresse",
      "year": 2019,
      "price_m2": 1820.7831325301204
    },
    {
      "nature_mutation": "Vente",
      "type_local": "Maison",
      "valeur_fonciere": 74600.0,
      "surface_reelle_bati": 74.0,
      "nombre_pieces_principales": 4.0,
      "surface_terrain": 961.0,
      "longitude": 5.00037,
      "latitude": 46.449586,
      "code_departement": "01",
      "code_commune": "01094",
      "nom_commune": "Chavannes-sur-Reyssouze",
      "year": 2019,
      "price_m2": 1008.1081081081081
    },
    {
      "nature_mutation": "Vente",
      "type_local": "Maison",
      "valeur_fonciere": 162600.0,
      "surface_reelle_bati": 90.0,
      "nombre_pieces_principales": 4.0,
      "surface_terrain": 762.0,
      "longitude": 4.948528,
      "latitude": 46.449186,
      "code_departement": "01",
      "code_commune": "01337",
      "nom_commune": "Saint-Bénigne",
      "year": 2019,
      "price_m2": 1806.6666666666667
    },
    {
      "nature_mutation": "Vente",
      "type_local": "Maison",
      "valeur_fonciere": 168000.0,
      "surface_reelle_bati": 103.0,
      "nombre_pieces_principales": 5.0,
      "surface_terrain": 807.0,
      "longitude": 5.217076,
      "latitude": 46.222993,
      "code_departement": "01",
      "code_commune": "01451",
      "nom_commune": "Viriat",
      "year": 2019,
      "price_m2": 1631.0679611650485
    },
    {
      "nature_mutation": "Vente",
      "type_local": "Maison",
      "valeur_fonciere": 168000.0,
      "surface_reelle_bati": 103.0,
      "nombre_pieces_principales": 5.0,
      "surface_terrain": 982.0,
      "longitude": 5.217076,
      "latitude": 46.222993,
      "code_departement": "01",
      "code_commune": "01451",
      "nom_commune": "Viriat",
      "year": 2019,
      "price_m2": 1631.0679611650485
    },
    {
      "nature_mutation": "Vente",
      "type_local": "Appartement",
      "valeur_fonciere": 132000.0,
      "surface_reelle_bati": 88.0,
      "nombre_pieces_principales": 4.0,
      "surface_terrain": null,
      "longitude": 5.062106,
      "latitude": 46.308374,
      "code_departement": "01",
      "code_commune": "01346",
      "nom_commune": "Saint-Didier-d'Aussiat",
      "year": 2019,
      "price_m2": 1500.0
    },
    {
      "nature_mutation": "Vente",
      "type_local": "Maison",
      "valeur_fonciere": 150000.0,
      "surface_reelle_bati": 95.0,
      "nombre_pieces_principales": 3.0,
      "surface_terrain": 886.0,
      "longitude": 5.330506,
      "latitude": 46.075599,
      "code_departement": "01",
      "code_commune": "01151",
      "nom_commune": "Druillat",
      "year": 2019,
      "price_m2": 1578.9473684210527
    },
    {
      "nature_mutation": "Vente",
      "type_local": "Maison",
      "valeur_fonciere": 255100.0,
      "surface_reelle_bati": 162.0,
      "nombre_pieces_principales": 7.0,
      "surface_terrain": 10.0,
      "longitude": 5.338142,
      "latitude": 46.070698,
      "code_departement": "01",
      "code_commune": "01304",
      "nom_commune": "Pont-d'Ain",
      "year": 2019,
      "price_m2": 1574.6913580246915
    },
    {
      "nature_mutation": "Vente",
      "type_local": "Appartement",
      "valeur_fonciere": 84000.0,
      "surface_reelle_bati": 70.0,
      "nombre_pieces_principales": 2.0,
      "surface_terrain": null,
      "longitude": 5.240439,
      "latitude": 46.205398,
      "code_departement": "01",
      "code_commune": "01053",
      "nom_commune": "Bourg-en-Bresse",
      "year": 2019,
      "price_m2": 1200.0
    },
    {
      "nature_mutation": "Vente",
      "type_local": "Maison",
      "valeur_fonciere": 200000.0,
      "surface_reelle_bati": 116.0,
      "nombre_pieces_principales": 4.0,
      "surface_terrain": 764.0,
      "longitude": 5.128866,
      "latitude": 46.250143,
      "code_departement": "01",
      "code_commune": "01301",
      "nom_commune": "Polliat",
      "year": 2019,
      "price_m2": 1724.1379310344828
    },
    {
      "nature_mutation": "Vente",
      "type_local": "Maison",
      "valeur_fonciere": 200000.0,
      "surface_reelle_bati": 116.0,
      "nombre_pieces_principales": 4.0,
      "surface_terrain": 1000.0,
      "longitude": 5.128866,
      "latitude": 46.250143,
      "code_departement": "01",
      "code_commune": "01301",
      "nom_commune": "Polliat",
      "year": 2019,
      "price_m2": 1724.1379310344828
    },
    {
      "nature_mutation": "Vente",
      "type_local": "Maison",
      "valeur_fonciere": 702200.0,
      "surface_reelle_bati": 140.0,
      "nombre_pieces_principales": 6.0,
      "surface_terrain": 2999.0,
      "longitude": 5.218479,
      "latitude": 46.15872,
      "code_departement": "01",
      "code_commune": "01289",
      "nom_commune": "Péronnas",
      "year": 2019,
      "price_m2": 5015.714285714285
    },
    {
      "nature_mutation": "Vente",
      "type_local": "Maison",
      "valeur_fonciere": 165000.0,
      "surface_reelle_bati": 93.0,
      "nombre_pieces_principales": 5.0,
      "surface_terrain": null,
      "longitude": 5.294737,
      "latitude": 46.167209,
      "code_departement": "01",
      "code_commune": "01254",
      "nom_commune": "Montagnat",
      "year": 2019,
      "price_m2": 1774.1935483870968
    },
    {
      "nature_mutation": "Vente",
      "type_local": "Appartement",
      "valeur_fonciere": 112325.0,
      "surface_reelle_bati": 71.0,
      "nombre_pieces_principales": 3.0,
      "surface_terrain": null,
      "longitude": 5.219198,
      "latitude": 46.200225,
      "code_departement": "01",
      "code_commune": "01053",
      "nom_commune": "Bourg-en-Bresse",
      "year": 2019,
      "price_m2": 1582.0422535211267
    },
    {
      "nature_mutation": "Vente",
      "type_local": "Appartement",
      "valeur_fonciere": 70000.0,
      "surface_reelle_bati": 104.0,
      "nombre_pieces_principales": 3.0,
      "surface_terrain": null,
      "longitude": 5.227944,
      "latitude": 46.203101,
      "code_departement": "01",
      "code_commune": "01053",
      "nom_commune": "Bourg-en-Bresse",
      "year": 2019,
      "price_m2": 673.0769230769231
    },
    {
      "nature_mutation": "Vente",
      "type_local": "Maison",
      "valeur_fonciere": 182000.0,
      "surface_reelle_bati": 104.0,
      "nombre_pieces_principales": 5.0,
      "surface_terrain": null,
      "longitude": 5.274941,
      "latitude": 46.196298,
      "code_departement": "01",
      "code_commune": "01053",
      "nom_commune": "Bourg-en-Bresse",
      "year": 2019,
      "price_m2": 1750.0
    },
    {
      "nature_mutation": "Vente",
      "type_local": "Maison",
      "valeur_fonciere": 150000.0,
      "surface_reelle_bati": 84.0,
      "nombre_pieces_principales": 4.0,
      "surface_terrain": 373.0,
      "longitude": 5.14585,
      "latitude": 46.160995,
      "code_departement": "01",
      "code_commune": "01336",
      "nom_commune": "Saint-André-sur-Vieux-Jonc",
      "year": 2019,
      "price_m2": 1785.7142857142858
    },
    {
      "nature_mutation": "Vente",
      "type_local": "Maison",
      "valeur_fonciere": 230000.0,
      "surface_reelle_bati": 123.0,
      "nombre_pieces_principales": 3.0,
      "surface_terrain": 1074.0,
      "longitude": 5.182954,
      "latitude": 46.186388,
      "code_departement": "01",
      "code_commune": "01289",
      "nom_commune": "Péronnas",
      "year": 2019,
      "price_m2": 1869.918699186992
    },
    {
      "nature_mutation": "Vente",
      "type_local": "Maison",
      "valeur_fonciere": 134000.0,
      "surface_reelle_bati": 76.0,
      "nombre_pieces_principales": 4.0,
      "surface_terrain": 279.0,
      "longitude": 5.369581,
      "latitude": 46.068956,
      "code_departement": "01",
      "code_commune": "01273",
      "nom_commune": "Neuville-sur-Ain",
      "year": 2019,
      "price_m2": 1763.157894736842
    },
    {
      "nature_mutation": "Vente",
      "type_local": "Maison",
      "valeur_fonciere": 181000.0,
      "surface_reelle_bati": 94.0,
      "nombre_pieces_principales": 3.0,
      "surface_terrain": 1432.0,
      "longitude": 5.130035,
      "latitude": 46.235692,
      "code_departement": "01",
      "code_commune": "01301",
      "nom_commune": "Polliat",
      "year": 2019,
      "price_m2": 1925.531914893617
    },
    {
      "nature_mutation": "Vente",
      "type_local": "Maison",
      "valeur_fonciere": 140000.0,
      "surface_reelle_bati": 82.0,
      "nombre_pieces_principales": 4.0,
      "surface_terrain": 119.0,
      "longitude": 4.939916,
      "latitude": 46.432464,
      "code_departement": "01",
      "code_commune": "01305",
      "nom_commune": "Pont-de-Vaux",
      "year": 2019,
      "price_m2": 1707.3170731707316
    },
    {
      "nature_mutation": "Vente",
      "type_local": "Maison",
      "valeur_fonciere": 159000.0,
      "surface_reelle_bati": 100.0,
      "nombre_pieces_principales": 4.0,
      "surface_terrain": 86.0,
      "longitude": 5.343186,
      "latitude": 46.080844,
      "code_departement": "01",
      "code_commune": "01273",
      "nom_commune": "Neuville-sur-Ain",
      "year": 2019,
      "price_m2": 1590.0
    },
    {
      "nature_mutation": "Vente",
      "type_local": "Maison",
      "valeur_fonciere": 216045.0,
      "surface_reelle_bati": 112.0,
      "nombre_pieces_principales": 6.0,
      "surface_terrain": 1664.0,
      "longitude": 4.977594,
      "latitude": 46.491313,
      "code_departement": "01",
      "code_commune": "01402",
      "nom_commune": "Sermoyer",
      "year": 2019,
      "price_m2": 1928.9732142857142
    },
    {
      "nature_mutation": "Vente",
      "type_local": "Maison",
      "valeur_fonciere": 184800.0,
      "surface_reelle_bati": 115.0,
      "nombre_pieces_principales": 4.0,
      "surface_terrain": null,
      "longitude": 5.427065,
      "latitude": 46.266893,
      "code_departement": "01",
      "code_commune": "01095",
      "nom_commune": "Nivigne et Suran",
      "year": 2019,
      "price_m2": 1606.9565217391305
    },
    {
      "nature_mutation": "Vente",
      "type_local": "Maison",
      "valeur_fonciere": 170000.0,
      "surface_reelle_bati": 97.0,
      "nombre_pieces_principales": 5.0,
      "surface_terrain": 224.0,
      "longitude": 5.252145,
      "latitude": 46.212736,
      "code_departement": "01",
      "code_commune": "01053",
      "nom_commune": "Bourg-en-Bresse",
      "year": 2019,
      "price_m2": 1752.5773195876288
    },
    {
      "nature_mutation": "Vente",
      "type_local": "Maison",
      "valeur_fonciere": 161150.0,
      "surface_reelle_bati": 110.0,
      "nombre_pieces_principales": 4.0,
      "surface_terrain": 891.0,
      "longitude": 4.942669,
      "latitude": 46.432821,
      "code_departement": "01",
      "code_commune": "01305",
      "nom_commune": "Pont-de-Vaux",
      "year": 2019,
      "price_m2": 1465.0
    },
    {
      "nature_mutation": "Vente",
      "type_local": "Maison",
      "valeur_fonciere": 62000.0,
      "surface_reelle_bati": 56.0,
      "nombre_pieces_principales": 1.0,
      "surface_terrain": 548.0,
      "longitude": 4.937023,
      "latitude": 46.418149,
      "code_departement": "01",
      "code_commune": "01175",
      "nom_commune": "Gorrevod",
      "year": 2019,
      "price_m2": 1107.142857142857
    },
    {
      "nature_mutation": "Vente",
      "type_local": "Appartement",
      "valeur_fonciere": 154400.0,
      "surface_reelle_bati": 67.0,
      "nombre_pieces_principales": 3.0,
      "surface_terrain": null,
      "longitude": 5.233978,
      "latitude": 46.211926,
      "code_departement": "01",
      "code_commune": "01053",
      "nom_commune": "Bourg-en-Bresse",
      "year": 2019,
      "price_m2": 2304.4776119402986
    },
    {
      "nature_mutation": "Vente",
      "type_local": "Maison",
      "valeur_fonciere": 110000.0,
      "surface_reelle_bati": 84.0,
      "nombre_pieces_principales": 3.0,
      "surface_terrain": 1846.0,
      "longitude": 5.097125,
      "latitude": 46.307417,
      "code_departement": "01",
      "code_commune": "01266",
      "nom_commune": "Montrevel-en-Bresse",
      "year": 2019,
      "price_m2": 1309.5238095238096
    },
    {
      "nature_mutation": "Vente",
      "type_local": "Appartement",
      "valeur_fonciere": 53000.0,
      "surface_reelle_bati": 46.0,
      "nombre_pieces_principales": 2.0,
      "surface_terrain": null,
      "longitude": 5.158398,
      "latitude": 46.287362,
      "code_departement": "01",
      "code_commune": "01024",
      "nom_commune": "Attignat",
      "year": 2019,
      "price_m2": 1152.1739130434783
    },
    {
      "nature_mutation": "Vente",
      "type_local": "Maison",
      "valeur_fonciere": 115000.0,
      "surface_reelle_bati": 177.0,
      "nombre_pieces_principales": 5.0,
      "surface_terrain": 1354.0,
      "longitude": 5.162938,
      "latitude": 46.313087,
      "code_departement": "01",
      "code_commune": "01130",
      "nom_commune": "Bresse Vallons",
      "year": 2019,
      "price_m2": 649.7175141242938
    },
    {
      "nature_mutation": "Vente",
      "type_local": "Maison",
      "valeur_fonciere": 268780.0,
      "surface_reelle_bati": 130.0,
      "nombre_pieces_principales": 5.0,
      "surface_terrain": 804.0,
      "longitude": 5.223007,
      "latitude": 46.240797,
      "code_departement": "01",
      "code_commune": "01451",
      "nom_commune": "Viriat",
      "year": 2019,
      "price_m2": 2067.5384615384614
    },
    {
      "nature_mutation": "Vente",
      "type_local": "Maison",
      "valeur_fonciere": 160100.0,
      "surface_reelle_bati": 82.0,
      "nombre_pieces_principales": 5.0,
      "surface_terrain": 1326.0,
      "longitude": 5.257347,
      "latitude": 46.347838,
      "code_departement": "01",
      "code_commune": "01232",
      "nom_commune": "Marboz",
      "year": 2019,
      "price_m2": 1952.439024390244
    },
    {
      "nature_mutation": "Vente",
      "type_local": "Maison",
      "valeur_fonciere": 160100.0,
      "surface_reelle_bati": 82.0,
      "nombre_pieces_principales": 5.0,
      "surface_terrain": 2173.0,
      "longitude": 5.257347,
      "latitude": 46.347838,
      "code_departement": "01",
      "code_commune": "01232",
      "nom_commune": "Marboz",
      "year": 2019,
      "price_m2": 1952.439024390244
    },
    {
      "nature_mutation": "Vente",
      "type_local": "Maison",
      "valeur_fonciere": 190000.0,
      "surface_reelle_bati": 80.0,
      "nombre_pieces_principales": 4.0,
      "surface_terrain": 950.0,
      "longitude": 5.219482,
      "latitude": 46.187576,
      "code_departement": "01",
      "code_commune": "01289",
      "nom_commune": "Péronnas",
      "year": 2019,
      "price_m2": 2375.0
    },
    {
      "nature_mutation": "Vente",
      "type_local": "Maison",
      "valeur_fonciere": 190000.0,
      "surface_reelle_bati": 80.0,
      "nombre_pieces_principales": 4.0,
      "surface_terrain": 808.0,
      "longitude": 5.219482,
      "latitude": 46.187576,
      "code_departement": "01",
      "code_commune": "01289",
      "nom_commune": "Péronnas",
      "year": 2019,
      "price_m2": 2375.0
    },
    {
      "nature_mutation": "Vente",
      "type_local": "Maison",
      "valeur_fonciere": 160000.0,
      "surface_reelle_bati": 79.0,
      "nombre_pieces_principales": 4.0,
      "surface_terrain": 990.0,
      "longitude": 4.88191,
      "latitude": 46.29917,
      "code_departement": "01",
      "code_commune": "01320",
      "nom_commune": "Replonges",
      "year": 2019,
      "price_m2": 2025.3164556962026
    },
    {
      "nature_mutation": "Vente",
      "type_local": "Maison",
      "valeur_fonciere": 170000.0,
      "surface_reelle_bati": 260.0,
      "nombre_pieces_principales": 8.0,
      "surface_terrain": 791.0,
      "longitude": 4.841395,
      "latitude": 46.303287,
      "code_departement": "01",
      "code_commune": "01370",
      "nom_commune": "Saint-Laurent-sur-Saône",
      "year": 2019,
      "price_m2": 653.8461538461538
    },
    {
      "nature_mutation": "Vente",
      "type_local": "Maison",
      "valeur_fonciere": 185000.0,
      "surface_reelle_bati": 88.0,
      "nombre_pieces_principales": 3.0,
      "surface_terrain": 732.0,
      "longitude": 5.13359,
      "latitude": 46.191579,
      "code_departement": "01",
      "code_commune": "01264",
      "nom_commune": "Montracol",
      "year": 2019,
      "price_m2": 2102.2727272727275
    },
    {
      "nature_mutation": "Vente",
      "type_local": "Appartement",
      "valeur_fonciere": 75950.0,
      "surface_reelle_bati": 47.0,
      "nombre_pieces_principales": 2.0,
      "surface_terrain": null,
      "longitude": 4.843007,
      "latitude": 46.307415,
      "code_departement": "01",
      "code_commune": "01370",
      "nom_commune": "Saint-Laurent-sur-Saône",
      "year": 2019,
      "price_m2": 1615.9574468085107
    },
    {
      "nature_mutation": "Vente",
      "type_local": "Maison",
      "valeur_fonciere": 286890.0,
      "surface_reelle_bati": 173.0,
      "nombre_pieces_principales": 6.0,
      "surface_terrain": 2234.0,
      "longitude": 5.193108,
      "latitude": 46.322113,
      "code_departement": "01",
      "code_commune": "01130",
      "nom_commune": "Bresse Vallons",
      "year": 2019,
      "price_m2": 1658.3236994219653
    },
    {
      "nature_mutation": "Vente",
      "type_local": "Maison",
      "valeur_fonciere": 286890.0,
      "surface_reelle_bati": 173.0,
      "nombre_pieces_principales": 6.0,
      "surface_terrain": 2549.0,
      "longitude": 5.193108,
      "latitude": 46.322113,
      "code_departement": "01",
      "code_commune": "01130",
      "nom_commune": "Bresse Vallons",
      "year": 2019,
      "price_m2": 1658.3236994219653
    },
    {
      "nature_mutation": "Vente",
      "type_local": "Maison",
      "valeur_fonciere": 260150.0,
      "surface_reelle_bati": 205.0,
      "nombre_pieces_principales": 8.0,
      "surface_terrain": 3987.0,
      "longitude": 5.019047,
      "latitude": 46.437078,
      "code_departement": "01",
      "code_commune": "01094",
      "nom_commune": "Chavannes-sur-Reyssouze",
      "year": 2019,
      "price_m2": 1269.0243902439024
    },
    {
      "nature_mutation": "Vente",
      "type_local": "Maison",
      "valeur_fonciere": 170400.0,
      "surface_reelle_bati": 144.0,
      "nombre_pieces_principales": 4.0,
      "surface_terrain": 999.0,
      "longitude": 5.055476,
      "latitude": 46.256849,
      "code_departement": "01",
      "code_commune": "01115",
      "nom_commune": "Confrançon",
      "year": 2019,
      "price_m2": 1183.3333333333333
    },
    {
      "nature_mutation": "Vente",
      "type_local": "Maison",
      "valeur_fonciere": 175000.0,
      "surface_reelle_bati": 109.0,
      "nombre_pieces_principales": 5.0,
      "surface_terrain": 770.0,
      "longitude": 5.236992,
      "latitude": 46.416597,
      "code_departement": "01",
      "code_commune": "01124",
      "nom_commune": "Cormoz",
      "year": 2019,
      "price_m2": 1605.5045871559632
    },
    {
      "nature_mutation": "Vente",
      "type_local": "Maison",
      "valeur_fonciere": 115000.0,
      "surface_reelle_bati": 75.0,
      "nombre_pieces_principales": 4.0,
      "surface_terrain": 297.0,
      "longitude": 4.894654,
      "latitude": 46.33083,
      "code_departement": "01",
      "code_commune": "01159",
      "nom_commune": "Feillens",
      "year": 2019,
      "price_m2": 1533.3333333333333
    },
    {
      "nature_mutation": "Vente",
      "type_local": "Appartement",
      "valeur_fonciere": 146850.0,
      "surface_reelle_bati": 71.0,
      "nombre_pieces_principales": 3.0,
      "surface_terrain": null,
      "longitude": 4.839962,
      "latitude": 46.305973,
      "code_departement": "01",
      "code_commune": "01370",
      "nom_commune": "Saint-Laurent-sur-Saône",
      "year": 2019,
      "price_m2": 2068.3098591549297
    },
    {
      "nature_mutation": "Vente",
      "type_local": "Maison",
      "valeur_fonciere": 171000.0,
      "surface_reelle_bati": 88.0,
      "nombre_pieces_principales": 4.0,
      "surface_terrain": 1093.0,
      "longitude": 4.949756,
      "latitude": 46.442572,
      "code_departement": "01",
      "code_commune": "01337",
      "nom_commune": "Saint-Bénigne",
      "year": 2019,
      "price_m2": 1943.1818181818182
    },
    {
      "nature_mutation": "Vente",
      "type_local": "Maison",
      "valeur_fonciere": 256200.0,
      "surface_reelle_bati": 77.0,
      "nombre_pieces_principales": 3.0,
      "surface_terrain": 2911.0,
      "longitude": 4.99983,
      "latitude": 46.256191,
      "code_departement": "01",
      "code_commune": "01291",
      "nom_commune": "Perrex",
      "year": 2019,
      "price_m2": 3327.2727272727275
    },
    {
      "nature_mutation": "Vente",
      "type_local": "Maison",
      "valeur_fonciere": 105000.0,
      "surface_reelle_bati": 90.0,
      "nombre_pieces_principales": 2.0,
      "surface_terrain": 1054.0,
      "longitude": 4.878405,
      "latitude": 46.299304,
      "code_departement": "01",
      "code_commune": "01320",
      "nom_commune": "Replonges",
      "year": 2019,
      "price_m2": 1166.6666666666667
    },
    {
      "nature_mutation": "Vente",
      "type_local": "Maison",
      "valeur_fonciere": 191000.0,
      "surface_reelle_bati": 90.0,
      "nombre_pieces_principales": 4.0,
      "surface_terrain": 2018.0,
      "longitude": 4.86394,
      "latitude": 46.22408,
      "code_departement": "01",
      "code_commune": "01136",
      "nom_commune": "Cruzilles-lès-Mépillat",
      "year": 2019,
      "price_m2": 2122.222222222222
    },
    {
      "nature_mutation": "Vente",
      "type_local": "Appartement",
      "valeur_fonciere": 98840.0,
      "surface_reelle_bati": 47.0,
      "nombre_pieces_principales": 2.0,
      "surface_terrain": null,
      "longitude": 4.839867,
      "latitude": 46.304075,
      "code_departement": "01",
      "code_commune": "01370",
      "nom_commune": "Saint-Laurent-sur-Saône",
      "year": 2019,
      "price_m2": 2102.978723404255
    },
    {
      "nature_mutation": "Vente",
      "type_local": "Maison",
      "valeur_fonciere": 219000.0,
      "surface_reelle_bati": 151.0,
      "nombre_pieces_principales": 6.0,
      "surface_terrain": 1143.0,
      "longitude": 4.97921,
      "latitude": 46.26953,
      "code_departement": "01",
      "code_commune": "01343",
      "nom_commune": "Saint-Cyr-sur-Menthon",
      "year": 2019,
      "price_m2": 1450.3311258278145
    },
    {
      "nature_mutation": "Vente",
      "type_local": "Maison",
      "valeur_fonciere": 174500.0,
      "surface_reelle_bati": 94.0,
      "nombre_pieces_principales": 5.0,
      "surface_terrain": 703.0,
      "longitude": 4.918373,
      "latitude": 46.258773,
      "code_departement": "01",
      "code_commune": "01365",
      "nom_commune": "Saint-Jean-sur-Veyle",
      "year": 2019,
      "price_m2": 1856.3829787234042
    },
    {
      "nature_mutation": "Vente",
      "type_local": "Maison",
      "valeur_fonciere": 174500.0,
      "surface_reelle_bati": 94.0,
      "nombre_pieces_principales": 5.0,
      "surface_terrain": 531.0,
      "longitude": 4.918373,
      "latitude": 46.258773,
      "code_departement": "01",
      "code_commune": "01365",
      "nom_commune": "Saint-Jean-sur-Veyle",
      "year": 2019,
      "price_m2": 1856.3829787234042
    },
    {
      "nature_mutation": "Vente",
      "type_local": "Appartement",
      "valeur_fonciere": 93000.0,
      "surface_reelle_bati": 57.0,
      "nombre_pieces_principales": 3.0,
      "surface_terrain": null,
      "longitude": 5.239748,
      "latitude": 46.192413,
      "code_departement": "01",
      "code_commune": "01053",
      "nom_commune": "Bourg-en-Bresse",
      "year": 2019,
      "price_m2": 1631.578947368421
    },
    {
      "nature_mutation": "Vente",
      "type_local": "Appartement",
      "valeur_fonciere": 173800.0,
      "surface_reelle_bati": 90.0,
      "nombre_pieces_principales": 3.0,
      "surface_terrain": null,
      "longitude": 5.230416,
      "latitude": 46.205123,
      "code_departement": "01",
      "code_commune": "01053",
      "nom_commune": "Bourg-en-Bresse",
      "year": 2019,
      "price_m2": 1931.111111111111
    },
    {
      "nature_mutation": "Vente",
      "type_local": "Appartement",
      "valeur_fonciere": 205000.0,
      "surface_reelle_bati": 75.0,
      "nombre_pieces_principales": 3.0,
      "surface_terrain": 117.0,
      "longitude": 5.226417,
      "latitude": 46.203528,
      "code_departement": "01",
      "code_commune": "01053",
      "nom_commune": "Bourg-en-Bresse",
      "year": 2019,
      "price_m2": 2733.3333333333335
    },
    {
      "nature_mutation": "Vente",
      "type_local": "Appartement",
      "valeur_fonciere": 205000.0,
      "surface_reelle_bati": 60.0,
      "nombre_pieces_principales": 1.0,
      "surface_terrain": 117.0,
      "longitude": 5.226417,
      "latitude": 46.203528,
      "code_departement": "01",
      "code_commune": "01053",
      "nom_commune": "Bourg-en-Bresse",
      "year": 2019,
      "price_m2": 3416.6666666666665
    },
    {
      "nature_mutation": "Vente",
      "type_local": "Appartement",
      "valeur_fonciere": 205000.0,
      "surface_reelle_bati": 75.0,
      "nombre_pieces_principales": 2.0,
      "surface_terrain": 117.0,
      "longitude": 5.226417,
      "latitude": 46.203528,
      "code_departement": "01",
      "code_commune": "01053",
      "nom_commune": "Bourg-en-Bresse",
      "year": 2019,
      "price_m2": 2733.3333333333335
    },
    {
      "nature_mutation": "Vente",
      "type_local": "Appartement",
      "valeur_fonciere": 69000.0,
      "surface_reelle_bati": 70.0,
      "nombre_pieces_principales": 3.0,
      "surface_terrain": null,
      "longitude": 5.225986,
      "latitude": 46.207776,
      "code_departement": "01",
      "code_commune": "01053",
      "nom_commune": "Bourg-en-Bresse",
      "year": 2019,
      "price_m2": 985.7142857142857
    },
    {
      "nature_mutation": "Vente",
      "type_local": "Appartement",
      "valeur_fonciere": 102000.0,
      "surface_reelle_bati": 36.0,
      "nombre_pieces_principales": 1.0,
      "surface_terrain": 140.0,
      "longitude": 5.145955,
      "latitude": 46.157009,
      "code_departement": "01",
      "code_commune": "01336",
      "nom_commune": "Saint-André-sur-Vieux-Jonc",
      "year": 2019,
      "price_m2": 2833.3333333333335
    },
    {
      "nature_mutation": "Vente",
      "type_local": "Appartement",
      "valeur_fonciere": 102000.0,
      "surface_reelle_bati": 36.0,
      "nombre_pieces_principales": 1.0,
      "surface_terrain": 140.0,
      "longitude": 5.145955,
      "latitude": 46.157009,
      "code_departement": "01",
      "code_commune": "01336",
      "nom_commune": "Saint-André-sur-Vieux-Jonc",
      "year": 2019,
      "price_m2": 2833.3333333333335
    },
    {
      "nature_mutation": "Vente",
      "type_local": "Maison",
      "valeur_fonciere": 146000.0,
      "surface_reelle_bati": 90.0,
      "nombre_pieces_principales": 3.0,
      "surface_terrain": 182.0,
      "longitude": 5.345581,
      "latitude": 46.384683,
      "code_departement": "01",
      "code_commune": "01108",
      "nom_commune": "Coligny",
      "year": 2019,
      "price_m2": 1622.2222222222222
    },
    {
      "nature_mutation": "Vente",
      "type_local": "Maison",
      "valeur_fonciere": 125000.0,
      "surface_reelle_bati": 94.0,
      "nombre_pieces_principales": 4.0,
      "surface_terrain": 56.0,
      "longitude": 4.956173,
      "latitude": 46.383516,
      "code_departement": "01",
      "code_commune": "01102",
      "nom_commune": "Chevroux",
      "year": 2019,
      "price_m2": 1329.787234042553
    },
    {
      "nature_mutation": "Vente",
      "type_local": "Maison",
      "valeur_fonciere": 150000.0,
      "surface_reelle_bati": 129.0,
      "nombre_pieces_principales": 4.0,
      "surface_terrain": 1006.0,
      "longitude": 5.24312,
      "latitude": 46.201769,
      "code_departement": "01",
      "code_commune": "01053",
      "nom_commune": "Bourg-en-Bresse",
      "year": 2019,
      "price_m2": 1162.7906976744187
    },
    {
      "nature_mutation": "Vente",
      "type_local": "Maison",
      "valeur_fonciere": 227600.0,
      "surface_reelle_bati": 112.0,
      "nombre_pieces_principales": 5.0,
      "surface_terrain": 187.0,
      "longitude": 5.173252,
      "latitude": 46.131319,
      "code_departement": "01",
      "code_commune": "01405",
      "nom_commune": "Servas",
      "year": 2019,
      "price_m2": 2032.142857142857
    },
    {
      "nature_mutation": "Vente",
      "type_local": "Maison",
      "valeur_fonciere": 146100.0,
      "surface_reelle_bati": 70.0,
      "nombre_pieces_principales": 3.0,
      "surface_terrain": 30.0,
      "longitude": 5.369047,
      "latitude": 46.270616,
      "code_departement": "01",
      "code_commune": "01426",
      "nom_commune": "Val-Revermont",
      "year": 2019,
      "price_m2": 2087.1428571428573
    },
    {
      "nature_mutation": "Vente",
      "type_local": "Maison",
      "valeur_fonciere": 202855.0,
      "surface_reelle_bati": 82.0,
      "nombre_pieces_principales": 5.0,
      "surface_terrain": 516.0,
      "longitude": 5.234533,
      "latitude": 46.192241,
      "code_departement": "01",
      "code_commune": "01053",
      "nom_commune": "Bourg-en-Bresse",
      "year": 2019,
      "price_m2": 2473.8414634146343
    },
    {
      "nature_mutation": "Vente",
      "type_local": "Maison",
      "valeur_fonciere": 98810.0,
      "surface_reelle_bati": 100.0,
      "nombre_pieces_principales": 3.0,
      "surface_terrain": 829.0,
      "longitude": 4.937661,
      "latitude": 46.424313,
      "code_departement": "01",
      "code_commune": "01175",
      "nom_commune": "Gorrevod",
      "year": 2019,
      "price_m2": 988.1
    },
    {
      "nature_mutation": "Vente",
      "type_local": "Maison",
      "valeur_fonciere": 204930.0,
      "surface_reelle_bati": 98.0,
      "nombre_pieces_principales": 4.0,
      "surface_terrain": 1489.0,
      "longitude": 5.203528,
      "latitude": 46.145997,
      "code_departement": "01",
      "code_commune": "01211",
      "nom_commune": "Lent",
      "year": 2019,
      "price_m2": 2091.122448979592
    },
    {
      "nature_mutation": "Vente",
      "type_local": "Maison",
      "valeur_fonciere": 187880.0,
      "surface_reelle_bati": 90.0,
      "nombre_pieces_principales": 4.0,
      "surface_terrain": 748.0,
      "longitude": 5.243296,
      "latitude": 46.18399,
      "code_departement": "01",
      "code_commune": "01053",
      "nom_commune": "Bourg-en-Bresse",
      "year": 2019,
      "price_m2": 2087.5555555555557
    },
    {
      "nature_mutation": "Vente",
      "type_local": "Appartement",
      "valeur_fonciere": 224000.0,
      "surface_reelle_bati": 97.0,
      "nombre_pieces_principales": 5.0,
      "surface_terrain": null,
      "longitude": 5.235095,
      "latitude": 46.203684,
      "code_departement": "01",
      "code_commune": "01053",
      "nom_commune": "Bourg-en-Bresse",
      "year": 2019,
      "price_m2": 2309.278350515464
    },
    {
      "nature_mutation": "Vente",
      "type_local": "Maison",
      "valeur_fonciere": 246000.0,
      "surface_reelle_bati": 90.0,
      "nombre_pieces_principales": 4.0,
      "surface_terrain": 1575.0,
      "longitude": 5.266638,
      "latitude": 46.19399,
      "code_departement": "01",
      "code_commune": "01053",
      "nom_commune": "Bourg-en-Bresse",
      "year": 2019,
      "price_m2": 2733.3333333333335
    },
    {
      "nature_mutation": "Vente",
      "type_local": "Maison",
      "valeur_fonciere": 171500.0,
      "surface_reelle_bati": 115.0,
      "nombre_pieces_principales": 6.0,
      "surface_terrain": 1668.0,
      "longitude": 4.936692,
      "latitude": 46.283681,
      "code_departement": "01",
      "code_commune": "01343",
      "nom_commune": "Saint-Cyr-sur-Menthon",
      "year": 2019,
      "price_m2": 1491.304347826087
    },
    {
      "nature_mutation": "Vente",
      "type_local": "Maison",
      "valeur_fonciere": 171500.0,
      "surface_reelle_bati": 115.0,
      "nombre_pieces_principales": 6.0,
      "surface_terrain": 676.0,
      "longitude": 4.936692,
      "latitude": 46.283681,
      "code_departement": "01",
      "code_commune": "01343",
      "nom_commune": "Saint-Cyr-sur-Menthon",
      "year": 2019,
      "price_m2": 1491.304347826087
    },
    {
      "nature_mutation": "Vente",
      "type_local": "Maison",
      "valeur_fonciere": 155000.0,
      "surface_reelle_bati": 95.0,
      "nombre_pieces_principales": 5.0,
      "surface_terrain": 671.0,
      "longitude": 5.369329,
      "latitude": 46.068817,
      "code_departement": "01",
      "code_commune": "01273",
      "nom_commune": "Neuville-sur-Ain",
      "year": 2019,
      "price_m2": 1631.578947368421
    },
    {
      "nature_mutation": "Vente",
      "type_local": "Appartement",
      "valeur_fonciere": 77000.0,
      "surface_reelle_bati": 61.0,
      "nombre_pieces_principales": 3.0,
      "surface_terrain": null,
      "longitude": 5.240439,
      "latitude": 46.205398,
      "code_departement": "01",
      "code_commune": "01053",
      "nom_commune": "Bourg-en-Bresse",
      "year": 2019,
      "price_m2": 1262.295081967213
    },
    {
      "nature_mutation": "Vente",
      "type_local": "Appartement",
      "valeur_fonciere": 77000.0,
      "surface_reelle_bati": 74.0,
      "nombre_pieces_principales": 4.0,
      "surface_terrain": null,
      "longitude": 5.240439,
      "latitude": 46.205398,
      "code_departement": "01",
      "code_commune": "01053",
      "nom_commune": "Bourg-en-Bresse",
      "year": 2019,
      "price_m2": 1040.5405405405406
    },
    {
      "nature_mutation": "Vente",
      "type_local": "Maison",
      "valeur_fonciere": 190000.0,
      "surface_reelle_bati": 100.0,
      "nombre_pieces_principales": 4.0,
      "surface_terrain": 2215.0,
      "longitude": 4.911192,
      "latitude": 46.411083,
      "code_departement": "01",
      "code_commune": "01057",
      "nom_commune": "Boz",
      "year": 2019,
      "price_m2": 1900.0
    },
    {
      "nature_mutation": "Vente",
      "type_local": "Maison",
      "valeur_fonciere": 190000.0,
      "surface_reelle_bati": 100.0,
      "nombre_pieces_principales": 4.0,
      "surface_terrain": 1150.0,
      "longitude": 4.911192,
      "latitude": 46.411083,
      "code_departement": "01",
      "code_commune": "01057",
      "nom_commune": "Boz",
      "year": 2019,
      "price_m2": 1900.0
    },
    {
      "nature_mutation": "Vente",
      "type_local": "Maison",
      "valeur_fonciere": 268000.0,
      "surface_reelle_bati": 103.0,
      "nombre_pieces_principales": 3.0,
      "surface_terrain": 1253.0,
      "longitude": 5.007759,
      "latitude": 46.435678,
      "code_departement": "01",
      "code_commune": "01094",
      "nom_commune": "Chavannes-sur-Reyssouze",
      "year": 2019,
      "price_m2": 2601.9417475728155
    },
    {
      "nature_mutation": "Vente",
      "type_local": "Maison",
      "valeur_fonciere": 268000.0,
      "surface_reelle_bati": 126.0,
      "nombre_pieces_principales": 3.0,
      "surface_terrain": 1597.0,
      "longitude": 5.007806,
      "latitude": 46.435474,
      "code_departement": "01",
      "code_commune": "01094",
      "nom_commune": "Chavannes-sur-Reyssouze",
      "year": 2019,
      "price_m2": 2126.9841269841268
    },
    {
      "nature_mutation": "Vente",
      "type_local": "Maison",
      "valeur_fonciere": 282000.0,
      "surface_reelle_bati": 150.0,
      "nombre_pieces_principales": 5.0,
      "surface_terrain": null,
      "longitude": 5.174438,
      "latitude": 46.089826,
      "code_departement": "01",
      "code_commune": "01211",
      "nom_commune": "Lent",
      "year": 2019,
      "price_m2": 1880.0
    },
    {
      "nature_mutation": "Vente",
      "type_local": "Appartement",
      "valeur_fonciere": 95000.0,
      "surface_reelle_bati": 52.0,
      "nombre_pieces_principales": 2.0,
      "surface_terrain": null,
      "longitude": 5.255882,
      "latitude": 46.20073,
      "code_departement": "01",
      "code_commune": "01053",
      "nom_commune": "Bourg-en-Bresse",
      "year": 2019,
      "price_m2": 1826.923076923077
    },
    {
      "nature_mutation": "Vente",
      "type_local": "Maison",
      "valeur_fonciere": 145000.0,
      "surface_reelle_bati": 73.0,
      "nombre_pieces_principales": 4.0,
      "surface_terrain": 680.0,
      "longitude": 5.208643,
      "latitude": 46.193161,
      "code_departement": "01",
      "code_commune": "01053",
      "nom_commune": "Bourg-en-Bresse",
      "year": 2019,
      "price_m2": 1986.3013698630136
    },
    {
      "nature_mutation": "Vente",
      "type_local": "Maison",
      "valeur_fonciere": 195900.0,
      "surface_reelle_bati": 89.0,
      "nombre_pieces_principales": 3.0,
      "surface_terrain": 1270.0,
      "longitude": 4.986821,
      "latitude": 46.250473,
      "code_departement": "01",
      "code_commune": "01291",
      "nom_commune": "Perrex",
      "year": 2019,
      "price_m2": 2201.123595505618
    },
    {
      "nature_mutation": "Vente",
      "type_local": "Maison",
      "valeur_fonciere": 90000.0,
      "surface_reelle_bati": 77.0,
      "nombre_pieces_principales": 3.0,
      "surface_terrain": 937.0,
      "longitude": 4.979297,
      "latitude": 46.239435,
      "code_departement": "01",
      "code_commune": "01291",
      "nom_commune": "Perrex",
      "year": 2019,
      "price_m2": 1168.8311688311687
    },
    {
      "nature_mutation": "Vente",
      "type_local": "Maison",
      "valeur_fonciere": 90000.0,
      "surface_reelle_bati": 77.0,
      "nombre_pieces_principales": 3.0,
      "surface_terrain": 937.0,
      "longitude": 4.979297,
      "latitude": 46.239435,
      "code_departement": "01",
      "code_commune": "01291",
      "nom_commune": "Perrex",
      "year": 2019,
      "price_m2": 1168.8311688311687
    },
    {
      "nature_mutation": "Vente",
      "type_local": "Maison",
      "valeur_fonciere": 90000.0,
      "surface_reelle_bati": 77.0,
      "nombre_pieces_principales": 3.0,
      "surface_terrain": 937.0,
      "longitude": 4.979297,
      "latitude": 46.239435,
      "code_departement": "01",
      "code_commune": "01291",
      "nom_commune": "Perrex",
      "year": 2019,
      "price_m2": 1168.8311688311687
    },
    {
      "nature_mutation": "Vente",
      "type_local": "Maison",
      "valeur_fonciere": 90000.0,
      "surface_reelle_bati": 73.0,
      "nombre_pieces_principales": 4.0,
      "surface_terrain": 937.0,
      "longitude": 4.979297,
      "latitude": 46.239435,
      "code_departement": "01",
      "code_commune": "01291",
      "nom_commune": "Perrex",
      "year": 2019,
      "price_m2": 1232.876712328767
    },
    {
      "nature_mutation": "Vente",
      "type_local": "Maison",
      "valeur_fonciere": 90000.0,
      "surface_reelle_bati": 85.0,
      "nombre_pieces_principales": 4.0,
      "surface_terrain": 937.0,
      "longitude": 4.979297,
      "latitude": 46.239435,
      "code_departement": "01",
      "code_commune": "01291",
      "nom_commune": "Perrex",
      "year": 2019,
      "price_m2": 1058.8235294117646
    },
    {
      "nature_mutation": "Vente",
      "type_local": "Appartement",
      "valeur_fonciere": 88000.0,
      "surface_reelle_bati": 40.0,
      "nombre_pieces_principales": 1.0,
      "surface_terrain": null,
      "longitude": 5.246901,
      "latitude": 46.208056,
      "code_departement": "01",
      "code_commune": "01053",
      "nom_commune": "Bourg-en-Bresse",
      "year": 2019,
      "price_m2": 2200.0
    },
    {
      "nature_mutation": "Vente",
      "type_local": "Appartement",
      "valeur_fonciere": 47000.0,
      "surface_reelle_bati": 38.0,
      "nombre_pieces_principales": 2.0,
      "surface_terrain": null,
      "longitude": 5.236635,
      "latitude": 46.206478,
      "code_departement": "01",
      "code_commune": "01053",
      "nom_commune": "Bourg-en-Bresse",
      "year": 2019,
      "price_m2": 1236.842105263158
    },
    {
      "nature_mutation": "Vente",
      "type_local": "Appartement",
      "valeur_fonciere": 84300.0,
      "surface_reelle_bati": 86.0,
      "nombre_pieces_principales": 4.0,
      "surface_terrain": null,
      "longitude": 5.228771,
      "latitude": 46.21326,
      "code_departement": "01",
      "code_commune": "01053",
      "nom_commune": "Bourg-en-Bresse",
      "year": 2019,
      "price_m2": 980.2325581395348
    },
    {
      "nature_mutation": "Vente",
      "type_local": "Maison",
      "valeur_fonciere": 234670.0,
      "surface_reelle_bati": 111.0,
      "nombre_pieces_principales": 5.0,
      "surface_terrain": 306.0,
      "longitude": 5.201104,
      "latitude": 46.204873,
      "code_departement": "01",
      "code_commune": "01344",
      "nom_commune": "Saint-Denis-lès-Bourg",
      "year": 2019,
      "price_m2": 2114.1441441441443
    },
    {
      "nature_mutation": "Vente",
      "type_local": "Appartement",
      "valeur_fonciere": 91405.0,
      "surface_reelle_bati": 64.0,
      "nombre_pieces_principales": 3.0,
      "surface_terrain": null,
      "longitude": 5.224788,
      "latitude": 46.210286,
      "code_departement": "01",
      "code_commune": "01053",
      "nom_commune": "Bourg-en-Bresse",
      "year": 2019,
      "price_m2": 1428.203125
    },
    {
      "nature_mutation": "Vente",
      "type_local": "Appartement",
      "valeur_fonciere": 91405.0,
      "surface_reelle_bati": 64.0,
      "nombre_pieces_principales": 3.0,
      "surface_terrain": null,
      "longitude": 5.224788,
      "latitude": 46.210286,
      "code_departement": "01",
      "code_commune": "01053",
      "nom_commune": "Bourg-en-Bresse",
      "year": 2019,
      "price_m2": 1428.203125
    },
    {
      "nature_mutation": "Vente",
      "type_local": "Maison",
      "valeur_fonciere": 165000.0,
      "surface_reelle_bati": 87.0,
      "nombre_pieces_principales": 3.0,
      "surface_terrain": null,
      "longitude": 5.127742,
      "latitude": 46.335505,
      "code_departement": "01",
      "code_commune": "01266",
      "nom_commune": "Montrevel-en-Bresse",
      "year": 2019,
      "price_m2": 1896.551724137931
    },
    {
      "nature_mutation": "Vente",
      "type_local": "Maison",
      "valeur_fonciere": 190005.0,
      "surface_reelle_bati": 135.0,
      "nombre_pieces_principales": 5.0,
      "surface_terrain": 378.0,
      "longitude": 4.898582,
      "latitude": 46.367932,
      "code_departement": "01",
      "code_commune": "01231",
      "nom_commune": "Manziat",
      "year": 2019,
      "price_m2": 1407.4444444444443
    },
    {
      "nature_mutation": "Vente",
      "type_local": "Appartement",
      "valeur_fonciere": 105340.0,
      "surface_reelle_bati": 67.0,
      "nombre_pieces_principales": 3.0,
      "surface_terrain": null,
      "longitude": 5.238345,
      "latitude": 46.190634,
      "code_departement": "01",
      "code_commune": "01053",
      "nom_commune": "Bourg-en-Bresse",
      "year": 2019,
      "price_m2": 1572.2388059701493
    },
    {
      "nature_mutation": "Vente",
      "type_local": "Maison",
      "valeur_fonciere": 115000.0,
      "surface_reelle_bati": 104.0,
      "nombre_pieces_principales": 6.0,
      "surface_terrain": 929.0,
      "longitude": 5.191463,
      "latitude": 46.122745,
      "code_departement": "01",
      "code_commune": "01211",
      "nom_commune": "Lent",
      "year": 2019,
      "price_m2": 1105.7692307692307
    },
    {
      "nature_mutation": "Vente",
      "type_local": "Maison",
      "valeur_fonciere": 175000.0,
      "surface_reelle_bati": 75.0,
      "nombre_pieces_principales": 2.0,
      "surface_terrain": 1052.0,
      "longitude": 5.114534,
      "latitude": 46.380402,
      "code_departement": "01",
      "code_commune": "01196",
      "nom_commune": "Jayat",
      "year": 2019,
      "price_m2": 2333.3333333333335
    },
    {
      "nature_mutation": "Vente",
      "type_local": "Maison",
      "valeur_fonciere": 100000.0,
      "surface_reelle_bati": 104.0,
      "nombre_pieces_principales": 5.0,
      "surface_terrain": 845.0,
      "longitude": 5.389769,
      "latitude": 46.195226,
      "code_departement": "01",
      "code_commune": "01447",
      "nom_commune": "Villereversure",
      "year": 2019,
      "price_m2": 961.5384615384615
    },
    {
      "nature_mutation": "Vente",
      "type_local": "Maison",
      "valeur_fonciere": 100000.0,
      "surface_reelle_bati": 104.0,
      "nombre_pieces_principales": 5.0,
      "surface_terrain": 1325.0,
      "longitude": 5.389769,
      "latitude": 46.195226,
      "code_departement": "01",
      "code_commune": "01447",
      "nom_commune": "Villereversure",
      "year": 2019,
      "price_m2": 961.5384615384615
    },
    {
      "nature_mutation": "Vente",
      "type_local": "Maison",
      "valeur_fonciere": 130000.0,
      "surface_reelle_bati": 88.0,
      "nombre_pieces_principales": 4.0,
      "surface_terrain": 886.0,
      "longitude": 5.390902,
      "latitude": 46.188681,
      "code_departement": "01",
      "code_commune": "01447",
      "nom_commune": "Villereversure",
      "year": 2019,
      "price_m2": 1477.2727272727273
    },
    {
      "nature_mutation": "Vente",
      "type_local": "Maison",
      "valeur_fonciere": 295000.0,
      "surface_reelle_bati": 164.0,
      "nombre_pieces_principales": 6.0,
      "surface_terrain": 2134.0,
      "longitude": 5.003284,
      "latitude": 46.34661,
      "code_departement": "01",
      "code_commune": "01025",
      "nom_commune": "Bâgé-Dommartin",
      "year": 2019,
      "price_m2": 1798.780487804878
    },
    {
      "nature_mutation": "Vente",
      "type_local": "Maison",
      "valeur_fonciere": 181450.0,
      "surface_reelle_bati": 90.0,
      "nombre_pieces_principales": 4.0,
      "surface_terrain": 667.0,
      "longitude": 5.324792,
      "latitude": 46.173379,
      "code_departement": "01",
      "code_commune": "01072",
      "nom_commune": "Ceyzériat",
      "year": 2019,
      "price_m2": 2016.111111111111
    },
    {
      "nature_mutation": "Vente",
      "type_local": "Appartement",
      "valeur_fonciere": 39000.0,
      "surface_reelle_bati": 36.0,
      "nombre_pieces_principales": 1.0,
      "surface_terrain": null,
      "longitude": 5.226261,
      "latitude": 46.210108,
      "code_departement": "01",
      "code_commune": "01053",
      "nom_commune": "Bourg-en-Bresse",
      "year": 2019,
      "price_m2": 1083.3333333333333
    },
    {
      "nature_mutation": "Vente",
      "type_local": "Appartement",
      "valeur_fonciere": 65000.0,
      "surface_reelle_bati": 27.0,
      "nombre_pieces_principales": 1.0,
      "surface_terrain": null,
      "longitude": 5.225003,
      "latitude": 46.208028,
      "code_departement": "01",
      "code_commune": "01053",
      "nom_commune": "Bourg-en-Bresse",
      "year": 2019,
      "price_m2": 2407.4074074074074
    },
    {
      "nature_mutation": "Vente",
      "type_local": "Appartement",
      "valeur_fonciere": 251755.0,
      "surface_reelle_bati": 104.0,
      "nombre_pieces_principales": 4.0,
      "surface_terrain": null,
      "longitude": 5.226596,
      "latitude": 46.208685,
      "code_departement": "01",
      "code_commune": "01053",
      "nom_commune": "Bourg-en-Bresse",
      "year": 2019,
      "price_m2": 2420.721153846154
    },
    {
      "nature_mutation": "Vente",
      "type_local": "Appartement",
      "valeur_fonciere": 66000.0,
      "surface_reelle_bati": 63.0,
      "nombre_pieces_principales": 4.0,
      "surface_terrain": null,
      "longitude": 5.235204,
      "latitude": 46.196832,
      "code_departement": "01",
      "code_commune": "01053",
      "nom_commune": "Bourg-en-Bresse",
      "year": 2019,
      "price_m2": 1047.6190476190477
    },
    {
      "nature_mutation": "Vente",
      "type_local": "Appartement",
      "valeur_fonciere": 123500.0,
      "surface_reelle_bati": 81.0,
      "nombre_pieces_principales": 4.0,
      "surface_terrain": null,
      "longitude": 5.228886,
      "latitude": 46.200365,
      "code_departement": "01",
      "code_commune": "01053",
      "nom_commune": "Bourg-en-Bresse",
      "year": 2019,
      "price_m2": 1524.6913580246915
    },
    {
      "nature_mutation": "Vente",
      "type_local": "Maison",
      "valeur_fonciere": 179000.0,
      "surface_reelle_bati": 78.0,
      "nombre_pieces_principales": 4.0,
      "surface_terrain": 51.0,
      "longitude": 5.189568,
      "latitude": 46.202099,
      "code_departement": "01",
      "code_commune": "01344",
      "nom_commune": "Saint-Denis-lès-Bourg",
      "year": 2019,
      "price_m2": 2294.871794871795
    },
    {
      "nature_mutation": "Vente",
      "type_local": "Maison",
      "valeur_fonciere": 216000.0,
      "surface_reelle_bati": 84.0,
      "nombre_pieces_principales": 3.0,
      "surface_terrain": 777.0,
      "longitude": 4.844501,
      "latitude": 46.235284,
      "code_departement": "01",
      "code_commune": "01123",
      "nom_commune": "Cormoranche-sur-Saône",
      "year": 2019,
      "price_m2": 2571.4285714285716
    },
    {
      "nature_mutation": "Vente",
      "type_local": "Maison",
      "valeur_fonciere": 216000.0,
      "surface_reelle_bati": 116.0,
      "nombre_pieces_principales": 4.0,
      "surface_terrain": 864.0,
      "longitude": 4.844122,
      "latitude": 46.235145,
      "code_departement": "01",
      "code_commune": "01123",
      "nom_commune": "Cormoranche-sur-Saône",
      "year": 2019,
      "price_m2": 1862.0689655172414
    },
    {
      "nature_mutation": "Vente",
      "type_local": "Appartement",
      "valeur_fonciere": 85500.0,
      "surface_reelle_bati": 70.0,
      "nombre_pieces_principales": 3.0,
      "surface_terrain": null,
      "longitude": 5.228771,
      "latitude": 46.21326,
      "code_departement": "01",
      "code_commune": "01053",
      "nom_commune": "Bourg-en-Bresse",
      "year": 2019,
      "price_m2": 1221.4285714285713
    },
    {
      "nature_mutation": "Vente",
      "type_local": "Appartement",
      "valeur_fonciere": 76900.0,
      "surface_reelle_bati": 68.0,
      "nombre_pieces_principales": 4.0,
      "surface_terrain": null,
      "longitude": 5.239748,
      "latitude": 46.192413,
      "code_departement": "01",
      "code_commune": "01053",
      "nom_commune": "Bourg-en-Bresse",
      "year": 2019,
      "price_m2": 1130.8823529411766
    },
    {
      "nature_mutation": "Vente",
      "type_local": "Maison",
      "valeur_fonciere": 192400.0,
      "surface_reelle_bati": 84.0,
      "nombre_pieces_principales": 4.0,
      "surface_terrain": 543.0,
      "longitude": 5.376641,
      "latitude": 46.074902,
      "code_departement": "01",
      "code_commune": "01273",
      "nom_commune": "Neuville-sur-Ain",
      "year": 2019,
      "price_m2": 2290.4761904761904
    },
    {
      "nature_mutation": "Vente",
      "type_local": "Maison",
      "valeur_fonciere": 370000.0,
      "surface_reelle_bati": 120.0,
      "nombre_pieces_principales": 4.0,
      "surface_terrain": 227.0,
      "longitude": 5.21987,
      "latitude": 46.198197,
      "code_departement": "01",
      "code_commune": "01053",
      "nom_commune": "Bourg-en-Bresse",
      "year": 2019,
      "price_m2": 3083.3333333333335
    },
    {
      "nature_mutation": "Vente",
      "type_local": "Maison",
      "valeur_fonciere": 136000.0,
      "surface_reelle_bati": 76.0,
      "nombre_pieces_principales": 3.0,
      "surface_terrain": 151.0,
      "longitude": 5.251869,
      "latitude": 46.213398,
      "code_departement": "01",
      "code_commune": "01053",
      "nom_commune": "Bourg-en-Bresse",
      "year": 2019,
      "price_m2": 1789.4736842105262
    },
    {
      "nature_mutation": "Vente",
      "type_local": "Appartement",
      "valeur_fonciere": 182000.0,
      "surface_reelle_bati": 38.0,
      "nombre_pieces_principales": 1.0,
      "surface_terrain": null,
      "longitude": 5.223982,
      "latitude": 46.204776,
      "code_departement": "01",
      "code_commune": "01053",
      "nom_commune": "Bourg-en-Bresse",
      "year": 2019,
      "price_m2": 4789.473684210527
    },
    {
      "nature_mutation": "Vente",
      "type_local": "Appartement",
      "valeur_fonciere": 182000.0,
      "surface_reelle_bati": 66.0,
      "nombre_pieces_principales": 2.0,
      "surface_terrain": null,
      "longitude": 5.223982,
      "latitude": 46.204776,
      "code_departement": "01",
      "code_commune": "01053",
      "nom_commune": "Bourg-en-Bresse",
      "year": 2019,
      "price_m2": 2757.5757575757575
    },
    {
      "nature_mutation": "Vente",
      "type_local": "Maison",
      "valeur_fonciere": 162500.0,
      "surface_reelle_bati": 123.0,
      "nombre_pieces_principales": 5.0,
      "surface_terrain": 1010.0,
      "longitude": 5.316771,
      "latitude": 46.335074,
      "code_departement": "01",
      "code_commune": "01445",
      "nom_commune": "Villemotier",
      "year": 2019,
      "price_m2": 1321.138211382114
    },
    {
      "nature_mutation": "Vente",
      "type_local": "Maison",
      "valeur_fonciere": 162500.0,
      "surface_reelle_bati": 123.0,
      "nombre_pieces_principales": 5.0,
      "surface_terrain": 1310.0,
      "longitude": 5.316771,
      "latitude": 46.335074,
      "code_departement": "01",
      "code_commune": "01445",
      "nom_commune": "Villemotier",
      "year": 2019,
      "price_m2": 1321.138211382114
    },
    {
      "nature_mutation": "Vente",
      "type_local": "Maison",
      "valeur_fonciere": 290000.0,
      "surface_reelle_bati": 102.0,
      "nombre_pieces_principales": 4.0,
      "surface_terrain": null,
      "longitude": 5.283045,
      "latitude": 46.294351,
      "code_departement": "01",
      "code_commune": "01350",
      "nom_commune": "Saint-Étienne-du-Bois",
      "year": 2019,
      "price_m2": 2843.1372549019607
    },
    {
      "nature_mutation": "Vente",
      "type_local": "Maison",
      "valeur_fonciere": 290000.0,
      "surface_reelle_bati": 160.0,
      "nombre_pieces_principales": 7.0,
      "surface_terrain": null,
      "longitude": 5.283045,
      "latitude": 46.294351,
      "code_departement": "01",
      "code_commune": "01350",
      "nom_commune": "Saint-Étienne-du-Bois",
      "year": 2019,
      "price_m2": 1812.5
    },
    {
      "nature_mutation": "Vente",
      "type_local": "Appartement",
      "valeur_fonciere": 76500.0,
      "surface_reelle_bati": 49.0,
      "nombre_pieces_principales": 2.0,
      "surface_terrain": null,
      "longitude": 5.246901,
      "latitude": 46.208056,
      "code_departement": "01",
      "code_commune": "01053",
      "nom_commune": "Bourg-en-Bresse",
      "year": 2019,
      "price_m2": 1561.2244897959183
    },
    {
      "nature_mutation": "Vente",
      "type_local": "Appartement",
      "valeur_fonciere": 140000.0,
      "surface_reelle_bati": 84.0,
      "nombre_pieces_principales": 3.0,
      "surface_terrain": null,
      "longitude": 5.230224,
      "latitude": 46.203013,
      "code_departement": "01",
      "code_commune": "01053",
      "nom_commune": "Bourg-en-Bresse",
      "year": 2019,
      "price_m2": 1666.6666666666667
    },
    {
      "nature_mutation": "Vente",
      "type_local": "Maison",
      "valeur_fonciere": 187000.0,
      "surface_reelle_bati": 105.0,
      "nombre_pieces_principales": 4.0,
      "surface_terrain": 702.0,
      "longitude": 4.88344,
      "latitude": 46.342403,
      "code_departement": "01",
      "code_commune": "01159",
      "nom_commune": "Feillens",
      "year": 2019,
      "price_m2": 1780.952380952381
    },
    {
      "nature_mutation": "Vente",
      "type_local": "Maison",
      "valeur_fonciere": 187000.0,
      "surface_reelle_bati": 105.0,
      "nombre_pieces_principales": 4.0,
      "surface_terrain": 790.0,
      "longitude": 4.88344,
      "latitude": 46.342403,
      "code_departement": "01",
      "code_commune": "01159",
      "nom_commune": "Feillens",
      "year": 2019,
      "price_m2": 1780.952380952381
    },
    {
      "nature_mutation": "Vente",
      "type_local": "Appartement",
      "valeur_fonciere": 90000.0,
      "surface_reelle_bati": 84.0,
      "nombre_pieces_principales": 4.0,
      "surface_terrain": null,
      "longitude": 5.226695,
      "latitude": 46.213651,
      "code_departement": "01",
      "code_commune": "01053",
      "nom_commune": "Bourg-en-Bresse",
      "year": 2019,
      "price_m2": 1071.4285714285713
    },
    {
      "nature_mutation": "Vente",
      "type_local": "Maison",
      "valeur_fonciere": 259500.0,
      "surface_reelle_bati": 124.0,
      "nombre_pieces_principales": 5.0,
      "surface_terrain": 334.0,
      "longitude": 5.197876,
      "latitude": 46.189499,
      "code_departement": "01",
      "code_commune": "01344",
      "nom_commune": "Saint-Denis-lès-Bourg",
      "year": 2019,
      "price_m2": 2092.7419354838707
    },
    {
      "nature_mutation": "Vente",
      "type_local": "Maison",
      "valeur_fonciere": 180000.0,
      "surface_reelle_bati": 71.0,
      "nombre_pieces_principales": 4.0,
      "surface_terrain": 688.0,
      "longitude": 5.341393,
      "latitude": 46.337434,
      "code_departement": "01",
      "code_commune": "01432",
      "nom_commune": "Verjon",
      "year": 2019,
      "price_m2": 2535.211267605634
    },
    {
      "nature_mutation": "Vente",
      "type_local": "Maison",
      "valeur_fonciere": 180000.0,
      "surface_reelle_bati": 71.0,
      "nombre_pieces_principales": 4.0,
      "surface_terrain": 857.0,
      "longitude": 5.341393,
      "latitude": 46.337434,
      "code_departement": "01",
      "code_commune": "01432",
      "nom_commune": "Verjon",
      "year": 2019,
      "price_m2": 2535.211267605634
    },
    {
      "nature_mutation": "Vente",
      "type_local": "Appartement",
      "valeur_fonciere": 102200.0,
      "surface_reelle_bati": 61.0,
      "nombre_pieces_principales": 2.0,
      "surface_terrain": null,
      "longitude": 5.207827,
      "latitude": 46.192724,
      "code_departement": "01",
      "code_commune": "01053",
      "nom_commune": "Bourg-en-Bresse",
      "year": 2019,
      "price_m2": 1675.4098360655737
    },
    {
      "nature_mutation": "Vente",
      "type_local": "Appartement",
      "valeur_fonciere": 120000.0,
      "surface_reelle_bati": 74.0,
      "nombre_pieces_principales": 3.0,
      "surface_terrain": null,
      "longitude": 5.218227,
      "latitude": 46.207149,
      "code_departement": "01",
      "code_commune": "01053",
      "nom_commune": "Bourg-en-Bresse",
      "year": 2019,
      "price_m2": 1621.6216216216217
    },
    {
      "nature_mutation": "Vente",
      "type_local": "Appartement",
      "valeur_fonciere": 69000.0,
      "surface_reelle_bati": 56.0,
      "nombre_pieces_principales": 2.0,
      "surface_terrain": null,
      "longitude": 5.15945,
      "latitude": 46.286986,
      "code_departement": "01",
      "code_commune": "01024",
      "nom_commune": "Attignat",
      "year": 2019,
      "price_m2": 1232.142857142857
    },
    {
      "nature_mutation": "Vente",
      "type_local": "Maison",
      "valeur_fonciere": 119000.0,
      "surface_reelle_bati": 120.0,
      "nombre_pieces_principales": 4.0,
      "surface_terrain": 615.0,
      "longitude": 5.052507,
      "latitude": 46.333905,
      "code_departement": "01",
      "code_commune": "01236",
      "nom_commune": "Marsonnas",
      "year": 2019,
      "price_m2": 991.6666666666666
    },
    {
      "nature_mutation": "Vente",
      "type_local": "Maison",
      "valeur_fonciere": 30000.0,
      "surface_reelle_bati": 50.0,
      "nombre_pieces_principales": 1.0,
      "surface_terrain": 115.0,
      "longitude": 4.942223,
      "latitude": 46.439167,
      "code_departement": "01",
      "code_commune": "01305",
      "nom_commune": "Pont-de-Vaux",
      "year": 2019,
      "price_m2": 600.0
    },
    {
      "nature_mutation": "Vente",
      "type_local": "Appartement",
      "valeur_fonciere": 90000.0,
      "surface_reelle_bati": 101.0,
      "nombre_pieces_principales": 4.0,
      "surface_terrain": null,
      "longitude": 5.228771,
      "latitude": 46.21326,
      "code_departement": "01",
      "code_commune": "01053",
      "nom_commune": "Bourg-en-Bresse",
      "year": 2019,
      "price_m2": 891.0891089108911
    },
    {
      "nature_mutation": "Vente",
      "type_local": "Maison",
      "valeur_fonciere": 234000.0,
      "surface_reelle_bati": 106.0,
      "nombre_pieces_principales": 4.0,
      "surface_terrain": 503.0,
      "longitude": 5.170379,
      "latitude": 46.306524,
      "code_departement": "01",
      "code_commune": "01130",
      "nom_commune": "Bresse Vallons",
      "year": 2019,
      "price_m2": 2207.5471698113206
    },
    {
      "nature_mutation": "Vente",
      "type_local": "Maison",
      "valeur_fonciere": 234000.0,
      "surface_reelle_bati": 106.0,
      "nombre_pieces_principales": 4.0,
      "surface_terrain": 500.0,
      "longitude": 5.170379,
      "latitude": 46.306524,
      "code_departement": "01",
      "code_commune": "01130",
      "nom_commune": "Bresse Vallons",
      "year": 2019,
      "price_m2": 2207.5471698113206
    },
    {
      "nature_mutation": "Vente",
      "type_local": "Maison",
      "valeur_fonciere": 92000.0,
      "surface_reelle_bati": 53.0,
      "nombre_pieces_principales": 2.0,
      "surface_terrain": 70.0,
      "longitude": 5.12867,
      "latitude": 46.336117,
      "code_departement": "01",
      "code_commune": "01266",
      "nom_commune": "Montrevel-en-Bresse",
      "year": 2019,
      "price_m2": 1735.8490566037735
    },
    {
      "nature_mutation": "Vente",
      "type_local": "Maison",
      "valeur_fonciere": 211800.0,
      "surface_reelle_bati": 98.0,
      "nombre_pieces_principales": 4.0,
      "surface_terrain": 657.0,
      "longitude": 5.1582,
      "latitude": 46.280484,
      "code_departement": "01",
      "code_commune": "01024",
      "nom_commune": "Attignat",
      "year": 2019,
      "price_m2": 2161.2244897959185
    },
    {
      "nature_mutation": "Vente",
      "type_local": "Maison",
      "valeur_fonciere": 132700.0,
      "surface_reelle_bati": 83.0,
      "nombre_pieces_principales": 5.0,
      "surface_terrain": 500.0,
      "longitude": 5.22051,
      "latitude": 46.187963,
      "code_departement": "01",
      "code_commune": "01289",
      "nom_commune": "Péronnas",
      "year": 2019,
      "price_m2": 1598.7951807228915
    },
    {
      "nature_mutation": "Vente",
      "type_local": "Maison",
      "valeur_fonciere": 132700.0,
      "surface_reelle_bati": 83.0,
      "nombre_pieces_principales": 5.0,
      "surface_terrain": 812.0,
      "longitude": 5.22051,
      "latitude": 46.187963,
      "code_departement": "01",
      "code_commune": "01289",
      "nom_commune": "Péronnas",
      "year": 2019,
      "price_m2": 1598.7951807228915
    },
    {
      "nature_mutation": "Vente",
      "type_local": "Appartement",
      "valeur_fonciere": 150000.0,
      "surface_reelle_bati": 40.0,
      "nombre_pieces_principales": 2.0,
      "surface_terrain": 50.0,
      "longitude": 5.226136,
      "latitude": 46.203578,
      "code_departement": "01",
      "code_commune": "01053",
      "nom_commune": "Bourg-en-Bresse",
      "year": 2019,
      "price_m2": 3750.0
    },
    {
      "nature_mutation": "Vente",
      "type_local": "Appartement",
      "valeur_fonciere": 150000.0,
      "surface_reelle_bati": 40.0,
      "nombre_pieces_principales": 2.0,
      "surface_terrain": 50.0,
      "longitude": 5.226136,
      "latitude": 46.203578,
      "code_departement": "01",
      "code_commune": "01053",
      "nom_commune": "Bourg-en-Bresse",
      "year": 2019,
      "price_m2": 3750.0
    },
    {
      "nature_mutation": "Vente",
      "type_local": "Appartement",
      "valeur_fonciere": 150000.0,
      "surface_reelle_bati": 40.0,
      "nombre_pieces_principales": 2.0,
      "surface_terrain": 50.0,
      "longitude": 5.226136,
      "latitude": 46.203578,
      "code_departement": "01",
      "code_commune": "01053",
      "nom_commune": "Bourg-en-Bresse",
      "year": 2019,
      "price_m2": 3750.0
    },